station_id,station_name,latitude,longitude,capacity,GEOID,median_household_income,total_households,households_no_vehicle,poverty_rate,no_vehicle_share,households_per_sqkm,nearest_subway_name,nearest_subway_dist_m,subway_count_500m
41495491-5d89-4e14-aab9-c3db04aad399,43 St & Skillman Ave,40.74692675687384,-73.9208248257637,19,36081017101,,0,0,,,0.0,40 St-Lowery St,441.2,2
1905837242740508940,31 St & Broadway,40.76211,-73.92523,35,36081006100,106413.0,2856,2278,6.0,0.7976190476190477,14642.0,Broadway,39.9,1
2177014969129222184,Henry Hudson Pkwy E & W 231 St,40.88336,-73.91505,0,36005029302,133102.0,2652,716,1.8,0.2699849170437405,6236.5,231 St,994.2,0
2177016530523622712,Post Rd & W 251 St,40.89561,-73.89793,0,36005035100,94948.0,1258,431,7.3,0.3426073131955485,2167.2,Van Cortlandt Park-242 St,709.5,0
2177016940364559212,David Sheridan Plaza & Broadway,40.90501,-73.89663,0,36005034500,100539.0,1680,613,10.1,0.3648809523809523,6117.4,Van Cortlandt Park-242 St,1760.3,0
62b97c1e-9d06-4c5e-b9c3-d76099e37fe4,Prospect Pl & Vanderbilt Ave,40.67767534,-73.96902144,27,36047016300,196630.0,1988,1271,8.0,0.6393360160965795,10798.9,7 Av,290.6,2
06439006-11b6-44f0-8545-c9d39035f32a,Vesey St & Church St,40.71221958009051,-74.01047229766846,78,36061001300,171923.0,2780,2567,11.9,0.9233812949640288,8763.7,World Trade Center,70.8,11
5645b05e-85be-460d-8506-cacd20bff233,36 St & 3 Ave,40.655716,-74.006664,30,36047001802,,0,0,,,0.0,36 St,270.4,1
2171904223419888148,E Gun Hill Rd & Tryon Ave,40.8802,-73.87697,21,36005042100,52824.0,2290,1677,30.5,0.7323144104803494,9302.1,Norwood-205 St,619.8,0
5526b855-dc09-4159-a20a-99651861a481,17 St & 5 Ave,40.663493,-73.991007,25,36047014300,119594.0,1423,669,9.5,0.4701335207308503,6551.4,Prospect Av,265.3,1
324e93c8-4f3d-4a5f-becd-00e6f49fe4dd,44 St & 2 Ave,40.652502,-74.013587,0,36047001803,,0,0,72.7,,0.0,45 St,498.2,1
16e70b05-5b73-4930-9dcf-f79e5ce9eaf5,44 St & 3 Ave,40.651173,-74.011405,23,36047000200,79375.0,383,212,34.5,0.5535248041775457,1383.0,45 St,275.0,1
2171903488884523500,Hull Ave & E 209 St,40.87689,-73.87444,14,36005042902,44663.0,1599,1268,23.7,0.792995622263915,16907.0,Norwood-205 St,437.3,1
66dbcbbc-0aca-11e7-82f6-3863bb44ef7c,West Thames St,40.70834698,-74.01713445,73,36061031704,218917.0,4683,3615,3.3,0.7719410634208841,20809.4,Rector St,297.3,4
69717638-5c4a-47a7-bccb-3b42c81eb09f,56 Dr & 61 St,40.72368,-73.90458,19,36081053100,73938.0,1385,220,10.1,0.1588447653429603,3270.4,Middle Village-Metropolitan Av,1859.9,0
66dcbac5-0aca-11e7-82f6-3863bb44ef7c,Lewis Ave & Decatur St,40.6814598,-73.934903,19,36047027300,122093.0,1420,780,8.4,0.5492957746478874,9485.3,Utica Av,422.1,1
d73e26de-8534-4b46-a321-3cae295ef9b2,W 171 St & St Nicholas Ave,40.842941,-73.938631,31,36061025300,72763.0,4028,3547,18.0,0.8805858987090367,23785.9,168 St,259.2,2
ec42fb3a-af54-46aa-a8b3-b17d72ed4475,34 Ave & 13 St,40.7638753,-73.9364848,19,36081004300,26814.0,1008,677,31.0,0.6716269841269841,5901.2,Broadway,952.3,0
32cc1603-a4b5-4099-b7bf-681de451b04a,Walker St & Baxter St,40.717411,-73.999573,47,36061002901,11094.0,69,57,65.9,0.8260869565217391,475.7,Canal St,80.4,5
4568f854-1268-45cf-bac8-82286ef40ae6,Dean St & Rockaway Ave,40.67486,-73.91123,21,36047036501,67165.0,1378,822,17.5,0.5965166908563135,10906.6,Rockaway Av,391.6,1
78aabb95-6195-4aa7-ab0d-5748eeb26bd1,Wilson Ave & Moffat St,40.68906,-73.90506,32,36047040900,78220.0,1308,805,20.1,0.6154434250764526,7591.0,Wilson Av,91.6,1
66dc3e89-0aca-11e7-82f6-3863bb44ef7c,E 31 St & 3 Ave,40.74394314,-73.97966069,65,36061007200,136979.0,4078,3797,6.5,0.9310936733692988,23300.9,33 St,312.9,2
26b3a82b-3487-44c2-85f1-eddb5a8a3a9d,55 St & Northern Blvd,40.75326,-73.90585,23,36081025500,92260.0,494,204,6.8,0.4129554655870445,2263.5,Northern Blvd,43.7,1
66dc0dab-0aca-11e7-82f6-3863bb44ef7c,W 59 St & 10 Ave,40.770513,-73.988038,117,36061014700,202250.0,1372,1024,6.8,0.7463556851311953,20973.1,59 St-Columbus Circle,572.8,0
1814548067447122618,Calyer St & West St,40.72693,-73.95863,35,36047056100,151875.0,1761,1132,6.1,0.6428165814877911,5202.1,Greenpoint Av,604.9,0
b35ba3c0-d3e8-4b1a-b63b-73a7bb518c9e,Irving Ave & Palmetto St,40.698,-73.9127,20,36047043300,59551.0,1442,1103,29.9,0.7649098474341193,8570.8,Myrtle-Wyckoff Avs,161.2,2
37a37e5b-f975-4f92-a897-dca8e4670631,46 St & 28 Ave,40.763328,-73.908782,19,36081014500,88462.0,1062,486,9.7,0.4576271186440678,8313.6,46 St,869.2,0
640a9a95-194f-42f5-8d88-1df67129f388,E 171 St & 3 Ave,40.837119,-73.902185,24,36005014702,23825.0,1924,1510,36.3,0.7848232848232848,16542.6,170 St,974.3,0
1862002854876824190,Elmhurst Ave & Forley St,40.74615,-73.87763,21,36081027102,65786.0,973,664,21.1,0.6824254881808839,19883.1,90 St-Elmhurst Av,265.3,1
1794852638057746848,63 St & Borden Ave,40.72655,-73.90321,21,36081051100,92647.0,840,180,10.9,0.2142857142857142,3066.7,Middle Village-Metropolitan Av,2038.3,0
66dd4d70-0aca-11e7-82f6-3863bb44ef7c,Riverside Dr & W 72 St,40.78057799010334,-73.98562431335449,41,36061016300,137829.0,3288,2364,5.5,0.718978102189781,12472.6,72 St,388.0,1
1869753057823626206,3 Ave & E Tremont Ave,40.84649,-73.89616,27,36005039500,21674.0,1821,1481,41.5,0.8132894014277869,4448.0,Tremont Av,878.4,0
66de19ab-0aca-11e7-82f6-3863bb44ef7c,3 St & Prospect Park West,40.668132,-73.97363831,31,36047017700,,0,0,,,0.0,7 Av,599.2,0
f523c481-ba41-44ba-96e1-0c431fbea558,34 St & 48 Ave,40.740821207823245,-73.93147185444832,25,36081019901,,114,59,42.7,0.5175438596491229,356.7,33 St-Rawson St,420.6,1
1960019951675478680,W 90 St & Amsterdam Ave,40.79018,-73.97289,34,36061017700,108429.0,4794,3397,13.2,0.7085940759282436,27463.7,86 St,328.1,2
66de6346-0aca-11e7-82f6-3863bb44ef7c,Hoyt St & Warren St,40.6843549,-73.98901629,35,36047007100,53786.0,1631,1238,20.5,0.7590435315757205,9735.6,Bergen St,252.7,1
a4d041fd-c5fa-4f52-800c-25d7a661a875,E 138 St & 5 Ave,40.81449,-73.936153,22,36061021000,43645.0,3322,2542,36.7,0.7652016857314871,16307.2,135 St,389.6,1
1814907590556515014,Cortelyou Rd & E 19 St,40.64269,-73.96099,23,36047051400,100000.0,2530,1520,14.5,0.6007905138339921,13971.6,Cortelyou Rd,313.6,2
ceb179f3-89c3-4c3e-8a0a-3415406a9463,Amsterdam Ave & W 180 St,40.847396,-73.931205,23,36061031100,,0,0,,,0.0,181 St,308.9,1
6fb81fda-f0b5-4242-90f9-88d0214feb8d,Sedgwick Ave & W Tremont Ave,40.85304455868985,-73.91830623149872,19,36005024700,48906.0,735,448,16.0,0.6095238095238096,4852.3,176 St,746.7,0
4e747443-d481-4aea-a6d1-cf20204af4ba,E 171 St & Webster Ave,40.838379,-73.905838,20,36005014702,23825.0,1924,1510,36.3,0.7848232848232848,16542.6,170 St,644.4,0
1840540852548303628,Butler St & 27 Ave,40.76521,-73.86483,18,36081037100,81607.0,607,93,11.6,0.1532125205930807,3237.8,111 St,1698.9,0
66dbe68e-0aca-11e7-82f6-3863bb44ef7c,Greenwich Ave & Charles St,40.735238,-74.000271,57,36061007100,150449.0,2510,2093,3.9,0.8338645418326693,15212.4,14 St,287.8,6
fbaffdbd-dab5-4127-9bd5-36bf58093ea8,9 Ave & W 204 St,40.86169883507865,-73.91855701804161,24,36061029900,34731.0,1399,1181,18.6,0.8441744102930665,2255.9,207 St,325.7,1
66dde103-0aca-11e7-82f6-3863bb44ef7c,E 88 St & Park Ave,40.781410700190015,-73.95595908164978,38,36061014802,179304.0,3428,2483,3.8,0.7243290548424738,27288.4,86 St,215.6,1
66dcc37f-0aca-11e7-82f6-3863bb44ef7c,Greene Ave & Nostrand Ave,40.6883337,-73.950916,23,36047025100,58856.0,1763,1372,37.4,0.7782189449801474,12730.3,Bedford-Nostrand Avs,262.6,1
8caf71df-76c3-43fb-be98-d555d2291460,Bergen St & Vanderbilt Ave,40.6794388,-73.9680438,27,36047020300,160795.0,963,599,13.1,0.6220145379023884,6837.2,7 Av,451.1,2
66dd5407-0aca-11e7-82f6-3863bb44ef7c,Riverside Dr & W 78 St,40.78414472,-73.98362492,79,36061016300,137829.0,3288,2364,5.5,0.718978102189781,12472.6,79 St,313.1,1
24509e46-a0de-47e8-ba40-9441da68952a,Fort Washington Ave & W 190 St,40.856906,-73.935662,19,36061028100,143194.0,1459,925,4.3,0.6339958875942426,15483.6,190 St,266.3,1
ba33c334-e17d-4478-ae3c-9c2f4dbfbb51,51 Ave & 61 St,40.73568,-73.90387,19,36081024300,60880.0,2344,614,8.1,0.2619453924914676,4339.7,61 St-Woodside,1108.9,0
457ea5d7-d643-4028-87db-46dee0b81555,Kingsland Ave & Nassau Ave,40.72577,-73.94173,25,36047059100,133795.0,1983,1041,5.1,0.5249621785173979,10322.5,Nassau Av,814.4,0
bf880f45-422c-4e0b-b3b0-2b1f5ba94da4,Fulton Ave & St Paul's Pl,40.83545,-73.90153,19,36005014702,23825.0,1924,1510,36.3,0.7848232848232848,16542.6,Freeman St,1014.6,0
481624f3-9377-4dfd-a5dd-de05a7fef760,Ogden Ave & W 165 St,40.834457,-73.928381,19,36005019300,46794.0,2519,1957,15.0,0.77689559348948,10439.8,167 St,599.5,0
c8c39d85-4ce7-46c5-b709-998067200780,Bedford Park Blvd & Paul Ave,40.87444,-73.89186,24,36005040900,67793.0,1409,604,3.9,0.4286728176011355,1706.4,Bedford Park Blvd-Lehman College,189.4,2
1b038e21-e199-4c47-bef0-f4bcdc06b73b,Duane St & Hudson St,40.71703,-74.00925,44,36061003900,202542.0,2699,1355,18.6,0.5020377917747314,8152.3,Chambers St,172.6,6
475c44e1-31e3-4c60-b071-af2ca3f7618c,Prospect Pl & Nostrand Ave,40.67428,-73.9503,22,36047031701,101806.0,1701,1245,11.1,0.7319223985890653,12172.5,Nostrand Av,493.1,1
84a7baff-415b-4ab9-a859-74c2801483ce,Devoe St & Morgan Ave,40.713811,-73.93515,19,36047048100,94896.0,1443,961,14.8,0.665973665973666,9537.0,Grand St,510.3,0
2c8b263e-952c-4941-a671-ef0ebb062632,E New York Ave & Troy Ave,40.66227,-73.93762,21,36047087401,37207.0,1542,1269,18.1,0.8229571984435797,11807.4,Crown Hts-Utica Av,835.9,0
bacfe3c2-7946-45ed-91f9-f5b91791de75,Madison Ave & E 120 St,40.80295,-73.942954,30,36061019800,108250.0,1029,751,12.7,0.7298347910592808,4564.2,125 St,470.1,2
66dd515d-0aca-11e7-82f6-3863bb44ef7c,W 74 St & Columbus Ave,40.7785669,-73.97754961,27,36061015700,163712.0,6442,4834,4.4,0.7503880782365725,35319.9,72 St,344.2,2
bc5235a5-7f10-4a27-806e-9c25fa700959,Broadway & Moylan Pl,40.8143256,-73.9590255,41,36061021100,65753.0,4189,3261,29.7,0.7784674146574362,12037.5,125 St,150.0,1
66de63cd-0aca-11e7-82f6-3863bb44ef7c,Columbia St & Degraw St,40.6859296,-74.00242364,21,36047004700,145341.0,849,421,13.5,0.4958775029446408,2989.8,Carroll St,882.2,0
66de25bd-0aca-11e7-82f6-3863bb44ef7c,3 St & 3 Ave,40.6750705,-73.98775226,79,36047011901,165179.0,576,281,11.8,0.4878472222222222,1284.5,Union St,464.3,2
6476c5fd-611e-436c-9736-e0f43bb7774e,E 163 St & Tiffany St,40.821075,-73.895069,19,36005015900,25686.0,1023,577,37.0,0.5640273704789834,9874.4,Intervale Av,186.5,3
1898751402035634700,E 51 St & Linden Blvd,40.65399,-73.92967,21,36047086800,45764.0,1299,912,23.0,0.7020785219399538,7440.7,Sutter Av-Rutland Rd,1333.2,0
8aad788d-c7eb-4fca-a426-c39f47741a6f,President St & Nostrand Ave,40.66811,-73.9505,28,36047031900,90357.0,1308,925,7.2,0.7071865443425076,8642.4,President St-Medgar Evers College,29.6,2
66db93a1-0aca-11e7-82f6-3863bb44ef7c,Cherry St,40.71219906,-73.97948148,36,36061000202,36688.0,3163,2641,28.7,0.8349668036674044,10201.9,East Broadway,916.8,0
1834145589124844432,92 St & 37 Ave,40.75085,-73.87509,19,36081027500,66971.0,2335,1234,24.2,0.5284796573875803,13145.6,90 St-Elmhurst Av,300.3,1
1854538962214948918,Martense Ave & 108 St,40.74214,-73.85418,20,36081043900,68922.0,1114,670,18.8,0.6014362657091562,6761.8,111 St,1070.8,0
1838070843306263244,112 St & Northern Blvd,40.75788,-73.85763,20,36081038100,83654.0,1762,883,19.9,0.5011350737797957,6175.6,111 St,710.7,0
7938263e-e5b8-4ca7-b8bf-1adbaae5fead,Southern Blvd & E 149 St,40.811892,-73.904192,27,36005003100,59297.0,1162,907,22.0,0.7805507745266781,7511.2,E 149 St,26.3,2
59b747c1-fbfb-4a3d-9394-8d06834d7c98,Sherman Ave & Thayer St,40.863124,-73.926994,21,36061028500,51026.0,2286,1881,30.2,0.8228346456692913,18746.9,Dyckman St,264.2,2
1b00fb53-da32-4b14-9a9a-84a391c8951c,Amsterdam Ave & W 119 St,40.8086249,-73.9596214,29,36061020701,92788.0,1091,956,21.9,0.8762603116406966,23078.7,116 St-Columbia University,390.9,1
1849010133527040242,111 St & Roosevelt Ave,40.75147,-73.8557,21,36081039901,118319.0,523,224,17.0,0.4282982791586998,4931.1,111 St,42.3,1
b4a320d6-2611-4940-96ca-17fb297ec826,Sunken Meadow Comfort Station,40.79558,-73.91906,25,36061024000,,0,0,69.8,,0.0,Cypress Av,1167.5,0
023cf549-bd85-4f9a-abd8-70ba29d7e86b,W Tremont Ave & Montgomery Ave,40.851788,-73.916418,21,36005021501,37171.0,1348,924,39.7,0.685459940652819,14659.5,176 St,535.3,0
66db75cc-0aca-11e7-82f6-3863bb44ef7c,South St & Gouverneur Ln,40.70355377,-74.00670227,43,36061000700,190388.0,5224,4498,3.8,0.8610260336906586,20629.5,Wall St,415.7,2
ca5cc034-a95d-446e-8314-6691589886b1,60 Ave & Fresh Pond Rd,40.71693,-73.90198,19,36081059900,120979.0,451,55,9.5,0.1219512195121951,3548.9,Middle Village-Metropolitan Av,1211.3,0
191d5d54-de64-4312-99c7-eee141efa4ef,Valentine Ave & E 183 St,40.856987,-73.898237,23,36005038301,44040.0,1601,1156,36.9,0.722048719550281,16892.1,182-183 Sts,232.9,2
66de17f7-0aca-11e7-82f6-3863bb44ef7c,W 100 St & Broadway,40.7973721,-73.97041192,39,36061018700,145459.0,3668,2857,9.7,0.7788985823336968,16817.1,103 St,287.2,2
581bc4fe-cf14-4767-8377-6fa156ff8a29,Morris Ave & E 153 St,40.820036,-73.921411,19,36005006700,30191.0,2640,2194,54.9,0.831060606060606,12427.7,149 St-Grand Concourse,481.8,1
ca843847-923a-40b7-80ca-c1c3fff6e818,Macombs Rd & W 175 St,40.848177,-73.916082,20,36005021502,20415.0,2322,1716,46.7,0.7390180878552972,14910.7,176 St,362.2,2
549b5bc4-b949-4eeb-8ffb-2215e1e49892,Morton St & Greenwich St,40.731135726910246,-74.00815155572697,56,36061006900,238563.0,1219,858,3.6,0.7038556193601313,5528.7,Houston St,397.4,1
9635affa-8b18-42d5-84c4-7f67ad5ef9d0,Alexander Ave & E 134 St,40.807466,-73.927107,19,36005001901,58083.0,1149,855,22.5,0.7441253263707572,5604.7,3 Av-138 St,344.5,1
29ced315-14b5-4edc-bef2-665316dfe3dd,W 12 St & Hudson St,40.73752993301071,-74.00558933615685,45,36061007700,230044.0,3274,2720,4.7,0.8307880268784361,18313.0,8 Av,356.1,3
1871698223344654662,Lee Ave & Taylor St,40.706732,-73.961241,25,36047053500,49244.0,1164,760,36.1,0.6529209621993127,8928.8,Marcy Av,344.9,1
b0bac4ef-bb57-4598-a433-75c281170d5b,Lenox Ave & W 146 St,40.821111,-73.935971,24,36061023200,27967.0,3410,3138,52.4,0.920234604105572,18893.2,145 St,80.1,2
1862008939006380034,E 189 St & Bathgate Ave,40.85859,-73.88821,21,36005038700,44982.0,1481,1189,29.2,0.8028359216745442,8159.9,Fordham Rd,856.8,0
1815968237323833702,Brooklyn Ave & Beverley Rd,40.64575,-73.94331,21,36047085400,78828.0,792,336,14.7,0.4242424242424242,6151.5,Beverly Rd,482.1,1
633fbc4c-7617-47ba-a393-aad7a8d26a3e,Van Brunt St & Van Dyke St,40.6758329439129,-74.01472628116608,24,36047005301,126071.0,920,291,12.3,0.3163043478260869,1598.7,Smith-9 Sts,1602.4,0
66dd1f44-0aca-11e7-82f6-3863bb44ef7c,Greenpoint Ave & Manhattan Ave,40.73026,-73.95394,27,36047057500,128804.0,2276,1464,10.5,0.6432337434094904,12546.5,Greenpoint Av,128.8,1
f34ea09d-32f9-492c-9124-99059bc0b5dd,Steinway St & 19 Ave,40.778089,-73.899558,21,36081012301,106328.0,1361,473,3.8,0.3475385745775165,2300.9,Astoria-Ditmars Blvd,1104.0,0
b371c432-b682-412f-9b85-8df84ce7a9f3,St Nicholas Ave & W 137 St,40.818477,-73.947568,21,36061021703,,0,0,,,0.0,135 St,65.2,1
1799624430022654108,Dwight St & Dikeman St,40.67487503856169,-74.01048018571481,21,36047005301,126071.0,920,291,12.3,0.3163043478260869,1598.7,Smith-9 Sts,1233.1,0
372c592e-09d8-400c-9595-2aa3510f39b0,Central Ave & Himrod St,40.69676,-73.92302,25,36047042100,94209.0,1795,1087,26.7,0.6055710306406685,11703.9,Knickerbocker Av,350.2,2
ed279ef2-52ee-4ff2-9a52-edd8137ea034,44 St & Greenpoint Ave,40.741119944681465,-73.92103672027588,27,36081018502,112260.0,1577,1091,10.8,0.6918199112238428,16027.4,46 St-Bliss St,313.2,2
dccaeeb5-c53a-4f48-80e6-05675b71a8c8,St Nicholas Ave & Manhattan Ave,40.809725,-73.953149,31,36061025700,104033.0,2260,1595,16.0,0.7057522123893806,15687.7,125 St,168.2,1
1838071008881986168,37 Ave & 113 St,40.75475,-73.8549,30,36081038100,83654.0,1762,883,19.9,0.5011350737797957,6175.6,111 St,337.8,1
53ef19c6-eaa7-47f7-807e-f51b574b1be0,Dyckman St & Staff St,40.868846,-73.931537,19,36061028700,89476.0,1634,1237,16.6,0.7570379436964504,3069.3,Dyckman St,517.5,0
1851674198082642572,Corona Ave & 111 St,40.7408,-73.84978,22,36081038302,,0,0,,,0.0,111 St,1302.3,0
576abdc1-986e-48b0-bde2-051a13d3ff59,39 St & Queens Blvd,40.74431,-73.92601,21,36081017901,81319.0,451,267,2.2,0.5920177383592018,4679.8,40 St-Lowery St,178.0,2
e9b3a725-6963-4151-8f7f-9beeb51fa20f,Menahan St & Seneca Ave,40.70461,-73.91054,16,36081054700,119732.0,1474,744,8.4,0.5047489823609227,11412.8,Seneca Av,312.9,1
56b3ca32-104a-4920-a879-a97a820858c4,Washington Ave & Empire Blvd,40.66314,-73.9605695,27,36047032700,82554.0,1420,926,13.1,0.652112676056338,8019.0,Prospect Park,220.9,1
528ed1e0-75aa-45be-8afe-c3f1c950782f,Grand Ave & 58 Ave,40.72098,-73.90701,20,36081053100,73938.0,1385,220,10.1,0.1588447653429603,3270.4,Middle Village-Metropolitan Av,1813.4,0
0687075b-cf2d-4130-a859-fe841aafbd3f,Vernon Blvd & 41 Rd,40.7552433,-73.9485678,27,36081003700,,0,0,,,0.0,21 St-Queensbridge,496.5,1
f401cd5f-cb41-41f8-a857-4a4dfe778f94,Wilson Ave & Troutman St,40.70166,-73.92754,26,36047042300,123750.0,1528,787,9.2,0.5150523560209425,8385.0,Central Av,423.0,1
6d766daf-9298-4059-a329-1818582d495f,Borden Ave & Review Ave,40.73866345465306,-73.94093804061413,19,36081019902,,8,0,69.7,0.0,12.8,Hunters Point Av,779.6,0
66dbef15-0aca-11e7-82f6-3863bb44ef7c,Atlantic Ave & Furman St,40.69165183,-73.9999786,55,36047004700,145341.0,849,421,13.5,0.4958775029446408,2989.8,Court St,743.1,0
66dd4c5f-0aca-11e7-82f6-3863bb44ef7c,Columbus Ave & W 72 St,40.7770575,-73.97898475,67,36061015700,163712.0,6442,4834,4.4,0.7503880782365725,35319.9,72 St,271.1,3
33840944-aa92-4d91-9de8-d29e5cd0b2d9,Warren St & Smith St,40.685424009970184,-73.99127773940563,33,36047006902,226136.0,826,597,3.6,0.7227602905569007,7893.4,Bergen St,87.5,1
d11b9869-8964-4b79-aafc-4b60ad1b44c4,Central Ave & Starr St,40.700003,-73.92834,23,36047042300,123750.0,1528,787,9.2,0.5150523560209425,8385.0,Central Av,251.5,1
545a32d3-b74c-4dc2-b82c-a6d185dd4666,Sheridan Ave & E 168 St,40.835334,-73.9154,22,36005017901,47778.0,1688,1187,20.2,0.7031990521327014,22001.2,167 St,309.2,2
7d5fa1f0-4069-4d5d-b735-5d500597394a,W Broadway & Watts St,40.72323,-74.00314,51,36061004700,148750.0,1486,1235,6.3,0.8310901749663526,8983.2,Canal St,267.6,5
ffae66ec-7c16-436f-bd0a-eedf81d580e7,E Mosholu Pkwy & Van Cortlandt Ave E,40.87656,-73.88366,22,36005041900,57079.0,2592,1796,17.1,0.6929012345679012,7953.2,Mosholu Pkwy,364.4,3
bfe5e69d-89ff-48b3-bf20-80cbdfa443e0,India St Pier,40.731734785883454,-73.9612390102593,54,36047056302,76351.0,1434,1162,9.9,0.810320781032078,7516.8,Greenpoint Av,573.7,0
66dbec40-0aca-11e7-82f6-3863bb44ef7c,E 5 St & Ave C,40.72299208,-73.97995466,55,36061002601,30350.0,1942,1702,32.9,0.8764160659114315,18312.6,Delancey St-Essex St,817.4,0
1986707977001495180,21 St & 20 Ave,40.78393602019729,-73.91273114065842,19,36081010500,65233.0,1851,723,13.4,0.3905996758508914,9347.5,Astoria-Ditmars Blvd,991.4,0
66dce9b5-0aca-11e7-82f6-3863bb44ef7c,Division Ave & Marcy Ave,40.70708701,-73.95796783,33,36047052900,39549.0,1067,582,16.4,0.5454545454545454,6100.4,Marcy Av,142.6,2
b4974d89-932c-4a9f-a264-2ea0cf70613e,Pinehurst Ave & W 187 St,40.855331,-73.937878,20,36061027300,122654.0,3116,2068,4.5,0.6636713735558408,17612.1,181 St,404.4,1
525535e3-dde3-47b4-9c2e-0174eaa4f2bb,61 St & Borden Ave,40.72558,-73.90417,21,36081051700,113125.0,819,284,10.0,0.3467643467643467,3222.1,Middle Village-Metropolitan Av,1998.8,0
2637fed8-1e2a-460b-83eb-3eb32ace0f4e,E 35 St & Madison Ave,40.74848023448579,-73.98255586624146,50,36061008200,162143.0,2006,1814,5.8,0.9042871385842473,11635.7,33 St,269.8,3
1876800925490112950,Arthur Ave & E Tremont Ave,40.84616,-73.89322,19,36005039500,21674.0,1821,1481,41.5,0.8132894014277869,4448.0,174 St,1089.1,0
66ddeaff-0aca-11e7-82f6-3863bb44ef7c,West End Ave & W 94 St,40.7941654,-73.974124,31,36061018300,149367.0,3827,2713,17.3,0.708910373660831,17060.2,96 St,154.1,1
66dc686c-0aca-11e7-82f6-3863bb44ef7c,8 Ave & W 33 St,40.75156757136795,-73.99376901480953,96,36061010100,108304.0,1169,1079,18.8,0.9230111206159112,6660.2,34 St-Penn Station,86.1,3
66de677e-0aca-11e7-82f6-3863bb44ef7c,E 106 St & Lexington Ave,40.791976,-73.945993,27,36061017200,34024.0,2545,2223,25.6,0.8734774066797643,14302.7,103 St,197.6,2
66db3053-0aca-11e7-82f6-3863bb44ef7c,Warren St & W Broadway,40.71473993,-74.00910627,71,36061002100,250001.0,3387,2463,0.9,0.7271922054915855,14277.3,Chambers St,82.6,9
1831178352265562334,Ocean Ave & Crooke Ave,40.65326,-73.96172,27,36047050804,110317.0,2715,1809,6.0,0.6662983425414365,26332.9,Parkside Av,226.7,2
a2ef8ed2-6031-4049-b7dc-9838ef39889b,Dawson St & Intervale Ave,40.819999,-73.897263,19,36005008700,40188.0,2091,1521,36.9,0.727403156384505,9790.5,Intervale Av,246.6,3
7a1ad7c0-4958-4354-91a1-11bf13348abd,56 Dr & 59 St,40.72403,-73.90853,19,36081053100,73938.0,1385,220,10.1,0.1588447653429603,3270.4,Middle Village-Metropolitan Av,2125.7,0
0138452a-b9f4-4aee-80b0-7fae9a122ffe,E 54 St & 1 Ave,40.756265,-73.964179,41,36061008603,200735.0,2710,1549,4.0,0.5715867158671587,23184.4,Lexington Av/53 St,434.9,1
180b83a0-329c-4069-87be-df862cb1baed,Church Ave & Story St,40.642031,-73.981073,23,36047022800,55898.0,763,382,38.5,0.5006553079947575,4558.7,Church Av,252.6,1
1875415144760576328,Naples Terrace & Godwin Terrace,40.87995,-73.90536,25,36005028900,61797.0,1861,1290,18.6,0.6931757119828049,9252.1,231 St,129.4,1
c190f78c-77ad-469e-aecc-e2af7bb6d92a,26 Ave & 2 St,40.77684387,-73.93463418,23,36081009100,99070.0,1016,317,6.1,0.312007874015748,5452.7,96 St,1342.2,0
4f814d78-5d8d-458b-877e-2ca449b865be,Riverside Dr & W 148 St,40.829114,-73.950426,22,36061023300,84927.0,2751,1884,19.6,0.6848418756815703,11846.9,145 St,285.0,1
d5cabb43-6c78-4022-964e-a8b02470509e,Sterling St & Nostrand Ave,40.66318,-73.95076,23,36047032900,92193.0,2121,1159,23.1,0.5464403583215465,13559.8,Sterling St,49.3,1
0ddb965d-95ef-4ce3-bde6-81a56ac1fbd2,Edgecombe Ave & W 145 St,40.823498,-73.94386,31,36061022700,63574.0,2389,1894,20.3,0.7928003348681457,15851.8,145 St,146.0,2
66de205d-0aca-11e7-82f6-3863bb44ef7c,3 St & 7 Ave,40.6703837,-73.97839676,27,36047015500,206176.0,1436,577,4.0,0.4018105849582172,9596.0,7 Av,484.8,1
c606bae0-889c-47c3-8202-9463ef147655,Lefferts Ave & Albany Ave,40.66288,-73.94019,24,36047080600,66632.0,1311,826,25.9,0.6300533943554538,7882.9,Kingston Av,743.7,0
26cae473-0e59-4af7-bad5-bb6fec85c8bc,Madison St & Seneca Ave,40.70183,-73.90625,22,36081055100,80268.0,1605,1169,17.0,0.7283489096573209,10346.0,Seneca Av,162.8,2
66dbcd6c-0aca-11e7-82f6-3863bb44ef7c,Clinton Ave & Myrtle Ave,40.693261,-73.968896,33,36047018700,139231.0,550,287,9.3,0.5218181818181818,6412.6,Clinton-Washington Avs,600.7,0
b96507c5-7c90-499d-9c45-58f25d6f636a,Shakespeare Ave & W 169 St,40.839312,-73.922423,20,36005021100,52128.0,2002,1448,30.2,0.7232767232767233,13200.0,170 St,398.8,2
64f0f28c-bedc-42d5-b107-ecdd48fc30cd,Broadway & W 48 St,40.76017739537783,-73.98486793041229,103,36061012500,171250.0,1452,1325,12.1,0.912534435261708,8332.7,49 St,68.7,6
7aa86431-bbc5-4d9c-8198-9630c9d32a22,Chester Ave & 12 Ave,40.644367,-73.984276,21,36047049800,77692.0,1570,932,8.8,0.5936305732484076,7683.0,Church Av,389.6,1
1888015107269225164,W 54 St & 9 Ave,40.76604,-73.98737,44,36061013300,156829.0,3787,3387,11.6,0.8943754951148667,21720.1,50 St,415.3,1
498d7e8e-5164-4f26-9ce6-399947d73b1a,Suydam St & St Nicholas Ave,40.70636,-73.91945,17,36047044500,86717.0,1648,1000,14.6,0.6067961165048543,9709.0,Jefferson St,293.2,2
f681f980-185d-45b9-8490-bb2606624dd4,Goulden Ave & Bedford Park Blvd,40.87387,-73.89533,19,36005040900,67793.0,1409,604,3.9,0.4286728176011355,1706.4,Bedford Park Blvd-Lehman College,445.7,1
d18512f9-52c8-4175-92b9-b6258dc30748,Park Pl & Buffalo Ave,40.67202,-73.92539,20,36047034700,42457.0,1860,1292,21.7,0.6946236559139785,13306.8,Crown Hts-Utica Av,725.4,0
66dd1c7f-0aca-11e7-82f6-3863bb44ef7c,Nassau Ave & Russell St,40.72557,-73.94434,51,36047059100,133795.0,1983,1041,5.1,0.5249621785173979,10322.5,Nassau Av,593.7,0
0fde06c2-632c-46a9-8866-f4e855604f74,Broadway & W 38 St,40.7529728216068,-73.98734897375107,68,36061011300,93750.0,49,27,54.4,0.5510204081632653,279.0,Times Sq-42 St,195.5,9
66dbe96d-0aca-11e7-82f6-3863bb44ef7c,W 26 St & 10 Ave,40.749717753,-74.002950346,51,36061009902,162845.0,2314,1888,9.2,0.8159031979256698,12309.1,23 St,592.2,0
42c3bb6e-0478-4e4a-af10-151f5f4dffb9,55 Dr & Maurice Ave,40.7261,-73.90917,19,36081021900,,0,0,,,0.0,52 St,2027.1,0
1786698974100683436,N 7 St & Driggs Ave,40.716967,-73.956388,53,36047051900,221375.0,3345,2435,5.3,0.7279521674140508,12166.5,Bedford Av,55.4,1
66dde4ef-0aca-11e7-82f6-3863bb44ef7c,W 92 St & Broadway,40.7921,-73.9739,24,36061017900,168859.0,4369,3024,8.9,0.6921492332341497,20424.8,96 St,241.9,2
22ab59a8-0af4-4101-9350-a7af88e37c2e,W 133 St & 12 Ave,40.820003,-73.959089,19,36061021900,21938.0,2052,1850,38.7,0.9015594541910332,7344.0,125 St,495.4,1
4e9a1c3a-20e2-4fd5-b8de-fbf8d43e7bcc,Maple St & Flatbush Ave,40.66026,-73.96045,24,36047079801,94375.0,1523,976,5.4,0.6408404464871963,11744.3,Prospect Park,213.6,1
c638ec67-9ac0-416f-944f-619926144931,E 40 St & Park Ave,40.750756,-73.978326,123,36061008000,177105.0,2830,2431,6.6,0.8590106007067138,16393.8,Grand Central-42 St,168.4,4
2124426307973079924,Shore Rd & 4 Ave,40.6115,-74.03513,12,36047005602,96397.0,965,444,2.8,0.4601036269430051,7145.2,Bay Ridge-95 St,673.3,0
1849009654626746672,55 Ave & 97 Pl,40.73892,-73.86367,19,36081044302,62731.0,1473,766,22.9,0.5200271554650373,5299.1,Woodhaven Blvd,798.3,0
0f98907a-d4cc-45e0-b174-7d9dfda74106,Steinway St & Broadway,40.75905795418586,-73.91897544264793,32,36081015500,94375.0,886,496,4.2,0.5598194130925508,6006.5,Steinway St,284.2,1
66dd46a2-0aca-11e7-82f6-3863bb44ef7c,E 85 St & York Ave,40.77536905,-73.94803392,47,36061014401,202966.0,2637,1911,5.3,0.7246871444823664,35481.2,86 St,422.5,1
66dd4ec7-0aca-11e7-82f6-3863bb44ef7c,Riverside Dr & W 82 St,40.78720869,-73.98128127,75,36061017100,149587.0,4208,3003,17.1,0.7136406844106464,19317.5,79 St,381.8,2
d979131e-0b9f-4aa2-88c5-46d4ff94abc8,Pacific St & Sackman St,40.67522,-73.9061,19,36047036502,67038.0,745,546,27.2,0.7328859060402685,6103.8,Atlantic Av,253.6,4
1814901062206225038,Lenox Rd & E 43 St,40.65496,-73.93765,21,36047087200,67650.0,1089,360,26.8,0.3305785123966942,7397.9,Winthrop St,1075.3,0
655ad2f2-6bcc-4eee-95a9-4f528c0b81cd,Wards Meadow Comfort Station,40.78294,-73.93077,18,36061024000,,0,0,69.8,,0.0,96 St,1387.8,0
66de1516-0aca-11e7-82f6-3863bb44ef7c,Coffey St & Conover St,40.677236,-74.015665,32,36047005301,126071.0,920,291,12.3,0.3163043478260869,1598.7,Smith-9 Sts,1710.8,0
66de0861-0aca-11e7-82f6-3863bb44ef7c,E 95 St & 3 Ave,40.7849032,-73.950503,31,36061015801,177750.0,2526,1825,5.9,0.722486144101346,20087.0,96 St,97.9,2
1f088432-0460-421e-a1d9-36890fa5396d,Barry St & Tiffany St,40.816126,-73.891559,19,36005009301,50962.0,1912,1309,26.0,0.6846234309623431,3349.9,Longwood Av,410.3,1
2124426077519611940,86 St & Ridge Blvd,40.62402,-74.03396,16,36047005000,134013.0,1069,262,10.3,0.245088868101029,4772.5,86 St,492.3,1
66ddea99-0aca-11e7-82f6-3863bb44ef7c,10 St & 7 Ave,40.6662078,-73.98199886,23,36047015100,188866.0,1763,817,4.5,0.4634146341463415,11807.6,7 Av,143.0,1
29a41b09-698f-43e2-82ff-f94f73e74841,41 St & 3 Ave,40.652512,-74.008906,19,36047008200,53500.0,1476,1025,31.0,0.6944444444444444,10566.2,45 St,408.0,1
517409d3-a94a-4140-a6de-ff0de9221ed2,Westchester Ave & E 156 St,40.817802,-73.905203,23,36005007900,43081.0,2225,1583,31.3,0.7114606741573034,11241.1,Jackson Av,263.3,2
ebae0b66-e463-4ded-9b7a-43c0aca9b37a,Morris Ave & E 142 St,40.814469,-73.924963,23,36005005100,25851.0,2930,2588,38.2,0.8832764505119454,5740.1,138 St-Grand Concourse,433.9,4
66dd17a5-0aca-11e7-82f6-3863bb44ef7c,Nassau Ave & Newell St,40.724812564400175,-73.94752621650696,51,36047057100,125272.0,2079,1447,7.6,0.696007696007696,11821.4,Nassau Av,316.7,1
b4f990dd-36bb-46b3-9eea-4b980bd43c2d,Jerome Ave & W Fordham Rd,40.86294,-73.90108,24,36005026500,71688.0,2181,1182,15.2,0.5419532324621733,10789.7,Fordham Rd,15.7,2
7f402242-dc1b-4a48-ba21-58c4fa7216b4,53 Ave & 62 St,40.73169,-73.90159,19,36081051500,102833.0,1192,214,4.7,0.1795302013422818,5312.8,61 St-Woodside,1554.5,0
e152a2e1-c510-404e-a100-24246bb6cc95,8 St & Astoria Blvd,40.7725996921817,-73.93266275525093,19,36081008100,122798.0,687,315,4.4,0.4585152838427948,6116.3,30 Av,1142.8,0
f833d403-2cf5-424a-a3b3-0314a44b4a67,Clinton St & Cherry St,40.711471394469264,-73.98672603070736,49,36061000201,37353.0,852,779,51.4,0.9143192488262912,9442.2,East Broadway,382.9,1
c00ef46d-fcde-48e2-afbd-0fb595fe3fa7,South St & Broad St,40.70188858913366,-74.01089876890182,31,36061000900,250001.0,893,703,6.6,0.7872340425531915,2987.8,Whitehall St-South Ferry,221.3,3
66de2707-0aca-11e7-82f6-3863bb44ef7c,E 65 St & 2 Ave,40.76471851944339,-73.96222069859505,48,36061011800,139332.0,5148,3353,7.3,0.6513209013209014,29123.9,Lexington Av/63 St,328.0,3
1854538387432581604,49 Ave & 108 St,40.74535,-73.8558,22,36081041500,63411.0,1315,543,23.5,0.4129277566539924,7692.7,111 St,710.5,0
66de2274-0aca-11e7-82f6-3863bb44ef7c,E 78 St & 2 Ave,40.7727966,-73.95577801,25,36061013400,122163.0,5643,4953,9.7,0.8777246145667198,31045.1,77 St,356.9,2
66dc0f8a-0aca-11e7-82f6-3863bb44ef7c,E 3 St & 1 Ave,40.72467721,-73.98783413,59,36061003602,155000.0,1514,1289,24.1,0.8513870541611624,17009.1,2 Av,227.0,1
b442a648-e9f4-4893-951a-64d258bc0e55,W 50 St & 9 Ave,40.763604677958625,-73.98917958140373,30,36061013300,156829.0,3787,3387,11.6,0.8943754951148667,21720.1,50 St,297.9,2
66dcc8b3-0aca-11e7-82f6-3863bb44ef7c,Willoughby Ave & Tompkins Ave,40.69425403,-73.94626915,19,36047025901,90000.0,832,590,21.4,0.7091346153846154,10371.6,Myrtle-Willoughby Avs,236.7,1
66dd4a52-0aca-11e7-82f6-3863bb44ef7c,W 67 St & Broadway,40.77492513,-73.98266566,31,36061015302,189453.0,3079,2432,6.1,0.7898668398830789,35263.9,66 St-Lincoln Center,169.6,2
2100948436010992354,Review Ave & Greenpoint Ave,40.734246796135544,-73.93776814411713,17,36081019901,,114,59,42.7,0.5175438596491229,356.7,33 St-Rawson St,1283.5,0
66db3687-0aca-11e7-82f6-3863bb44ef7c,Columbia Heights & Cranberry St,40.70037867,-73.99548059,37,36047000100,178162.0,2594,1318,2.8,0.5080956052428681,12482.0,Clark St,381.6,2
44c23eaa-7ddf-40b3-8373-6f3880c5e1b1,Washington Ave & E 174 St,40.843079,-73.900216,19,36005016500,52446.0,376,149,21.7,0.3962765957446808,1910.2,174-175 Sts,891.5,0
47da6ab2-c841-4f2d-97ef-dd8d441c96b1,Loring Pl North & W 183 St,40.8604244,-73.9093359997,20,36005025500,49159.0,2311,1795,22.5,0.7767200346170489,13704.1,183 St,510.8,0
f9ed9a6b-097e-48b9-a9d1-79d084dcd2d9,Anthony Ave & E 175 St,40.846465,-73.903869,19,36005023100,,404,222,29.1,0.5495049504950495,3448.8,Tremont Av,453.3,1
6e5a8cab-cf1a-4584-8133-01835b56ad71,River Ave & E 153 St,40.82441,-73.92818,27,36005006301,59924.0,3045,2240,34.5,0.735632183908046,3893.0,161 St-Yankee Stadium,443.1,2
b896d83d-5524-4c9c-a2aa-c1b0edaadc22,Walton Ave & E 168 St,40.83649,-73.918316,20,36005022102,33614.0,1681,1408,35.3,0.8375966686496134,21470.6,167 St,280.3,3
1835618878584115330,3 Ave & E 109 St,40.79338,-73.94329,25,36061017000,40027.0,3452,2844,30.8,0.8238702201622248,18871.9,110 St,199.5,2
66dd26f9-0aca-11e7-82f6-3863bb44ef7c,9 St & 44 Rd,40.74966,-73.9521,34,36081001903,172986.0,1303,1122,5.0,0.8610897927858787,2799.1,Court Sq-23 St,552.0,0
ff9581d3-3e1a-463a-bdab-d8150c468be2,21 St & Hoyt Ave S,40.774645,-73.923706,33,36081009500,127946.0,879,360,6.6,0.409556313993174,5343.1,Astoria Blvd,694.1,0
66dc17df-0aca-11e7-82f6-3863bb44ef7c,E 45 St & 3 Ave,40.75255434,-73.97282625,34,36061009000,156381.0,4272,3652,8.7,0.8548689138576779,24453.9,Grand Central-42 St,298.2,2
1929504694747056164,Pier 61 at Chelsea Piers,40.746872,-74.00821,43,36061009901,250001.0,1034,773,2.3,0.7475822050290135,2643.4,14 St,862.4,0
595cf79f-7783-4373-b3d5-775bcf76033b,Ogden Ave & Merriam Ave,40.839142,-73.925961,19,36005020100,32692.0,1406,1054,44.6,0.7496443812233285,4989.2,167 St,554.9,0
66dc3782-0aca-11e7-82f6-3863bb44ef7c,Grand St & Havemeyer St,40.71286844,-73.95698119,31,36047051900,221375.0,3345,2435,5.3,0.7279521674140508,12166.5,Metropolitan Av,469.0,2
66dc292c-0aca-11e7-82f6-3863bb44ef7c,Broadway & W 41 St,40.75513557,-73.98658032,55,36061011300,93750.0,49,27,54.4,0.5510204081632653,279.0,Times Sq-42 St,53.6,7
bbc3c1df-f7db-4f54-8d5c-b8f4269ecb48,64 St & 53 Dr,40.72897,-73.90115,19,36081051500,102833.0,1192,214,4.7,0.1795302013422818,5312.8,61 St-Woodside,1858.9,0
d265dbc7-ef55-4f5b-8a2b-f2015dc71fb8,Crescent St & 35 Ave,40.7596276,-73.9321455,25,36081004700,56333.0,1818,1228,30.5,0.6754675467546755,10142.3,36 Av,381.4,1
66dea7b5-0aca-11e7-82f6-3863bb44ef7c,E 53 St & 3 Ave,40.75763227739443,-73.96930575370789,41,36061009800,171745.0,4705,4060,12.1,0.8629117959617428,26572.8,Lexington Av/53 St,22.9,2
d470e82e-d109-4e2e-b66a-f5e944cbfe97,Eastern Pkwy & Ralph Ave,40.66852,-73.92284,21,36047035900,62774.0,2462,1515,21.6,0.6153533712428919,13411.4,Sutter Av-Rutland Rd,423.3,1
3eb10c63-ea4c-4161-b07d-a29034f7367a,Brook Ave & E 141 St,40.809619,-73.917875,19,36005004100,14592.0,2468,1891,53.9,0.7662074554294975,13359.9,Brook Av,255.6,1
1846085734612252774,98 St & 41 Ave,40.74773,-73.86649,22,36081040901,83320.0,445,226,10.0,0.5078651685393258,6279.5,Junction Blvd,300.3,2
7dda8844-60ba-4449-b05c-54c1d14ab5fb,Broadway & Morris St,40.705945132708806,-74.01321887969969,69,36061001300,171923.0,2780,2567,11.9,0.9233812949640288,8763.7,Rector St,142.1,8
66dba303-0aca-11e7-82f6-3863bb44ef7c,Clinton Ave & Flushing Ave,40.69794,-73.96986848,15,36047054300,,0,0,,,0.0,Clinton-Washington Avs,1124.8,0
66dde630-0aca-11e7-82f6-3863bb44ef7c,E 93 St & 2 Ave,40.782454175279874,-73.9489196240902,73,36061015403,129848.0,2503,1799,11.0,0.7187375149820215,48399.9,96 St,255.1,2
66dd1d0f-0aca-11e7-82f6-3863bb44ef7c,Banker St & Meserole Ave,40.72606,-73.95621,31,36047056100,151875.0,1761,1132,6.1,0.6428165814877911,5202.1,Nassau Av,444.9,1
b9720921-8170-43ea-a5ae-b61b9161eb49,5 Ave & E 87 St,40.78232260730881,-73.95987510681152,39,36061014300,,0,0,,,0.0,86 St,478.9,1
66db2a71-0aca-11e7-82f6-3863bb44ef7c,Barrow St & Hudson St,40.73172428,-74.00674436,45,36061006900,238563.0,1219,858,3.6,0.7038556193601313,5528.7,Christopher St-Stonewall,374.5,2
bc9c9006-3d40-400d-8b5c-17f56e6dfcee,Amsterdam Ave & W 162 St,40.83618,-73.939789,27,36061024301,74226.0,1583,1287,16.7,0.8130132659507264,15048.4,163 St-Amsterdam Av,20.5,3
faf98f78-51ab-4248-b7e7-f402902385a6,65 St & Broadway,40.7493722738996,-73.89738768339157,18,36081029300,70556.0,414,185,5.6,0.4468599033816425,2735.6,65 St,95.6,2
abc1311e-e000-4211-af9e-0cf92242711e,Grand Concourse & E 164 St,40.829608,-73.921461,22,36005019500,45661.0,2703,2245,39.7,0.8305586385497595,12295.1,161 St-Yankee Stadium,400.2,2
a45a712c-1e3d-4fee-bef8-adafafd80670,62 St & 43 Ave,40.74261,-73.903,20,36081024900,76987.0,2118,889,5.2,0.4197355996222852,10378.1,61 St-Woodside,335.8,1
18a2cbb6-91f2-4393-82fb-b40a8ba90f20,Amsterdam Ave & W 175 St,40.844044,-73.933651,23,36061031100,,0,0,,,0.0,181 St,607.3,0
1861678548643203686,Crotona Pkwy & Bronx Park S,40.84784,-73.883,25,36005036300,27273.0,2458,1899,40.6,0.7725793327908869,11098.8,West Farms Sq-E Tremont Av,874.9,0
1826348248869574940,E 18 St & Church Ave,40.64958,-73.96316,31,36047050600,69276.0,2003,1356,17.8,0.6769845232151772,12162.6,Church Av,106.4,1
807e9f5a-49b6-4b7e-847b-4a60cff330ed,Linden St & Knickerbocker Ave,40.69714,-73.91566,18,36047043300,59551.0,1442,1103,29.9,0.7649098474341193,8570.8,Myrtle-Wyckoff Avs,375.6,3
4efda436-cd19-4ec3-acc7-1a622f723264,Fulton St & Saratoga Ave,40.67853,-73.91642,19,36047030100,98438.0,1106,473,21.4,0.4276672694394213,5688.3,Ralph Av,369.6,2
66dc8db1-0aca-11e7-82f6-3863bb44ef7c,Front St & Washington St,40.70255088,-73.98940236,57,36047002100,250001.0,2800,1537,9.0,0.5489285714285714,5293.5,York St,257.7,2
ad57266c-34da-43da-8b48-2ba856002fbf,Grove St & Broadway,40.69047,-73.923511,31,36047039700,74291.0,1598,1055,21.9,0.6602002503128911,10039.4,Gates Av,140.3,1
1846085439406916338,41 Ave & 77 St,40.74557,-73.8882,24,36081026700,58274.0,2474,1780,12.8,0.719482619240097,11792.3,Jackson Hts-Roosevelt Av,290.1,3
1880643645302280466,Washington Ave & Park Pl,40.675832,-73.963308,33,36047020500,164926.0,1586,791,3.4,0.4987389659520807,9930.4,Eastern Pkwy-Brooklyn Museum,436.9,2
59af018a-2ee9-489a-b445-bb6fba9c1119,W 163 St & Riverside Dr,40.839278,-73.945446,19,36061024700,83605.0,2705,2037,19.2,0.7530499075785583,10552.1,168 St-Washington Hts,469.0,1
9af90faf-0b9b-451b-9cb0-20ff421ca1d9,E 165 St & Fox St,40.82394,-73.894025,27,36005012901,39409.0,1744,1277,45.1,0.7322247706422018,11152.7,Simpson St,82.2,3
1817432434869846072,Rogers Ave & Snyder Ave,40.6487143313713,-73.95207855180962,23,36047082400,57204.0,2067,1403,23.8,0.6787614900822448,9642.4,Church Av,317.2,2
a3d72b5b-9587-4f33-9722-c01e20a9b358,Bushwick Ave & Dekalb Ave,40.69502,-73.92825,29,36047039300,112566.0,1643,1255,16.3,0.7638466220328667,8665.5,Kosciuszko St,192.5,2
55a4dc76-d839-4e06-9bf4-2f343391343c,Woodward Ave & Harman St,40.70793,-73.91092,19,36081059100,53832.0,2133,1373,26.1,0.6436943272386311,10556.3,Seneca Av,634.1,0
5f63411c-91ce-4788-a567-d388cc812a15,Lexington Ave & E 127 St,40.805726,-73.936322,33,36061024200,42617.0,2037,1591,28.8,0.7810505645557192,5864.3,125 St,206.5,1
66dd24ca-0aca-11e7-82f6-3863bb44ef7c,31 St & Thomson Ave,40.74469738,-73.93540375,47,36081017902,,0,0,100.0,,0.0,33 St-Rawson St,371.4,1
66db4549-0aca-11e7-82f6-3863bb44ef7c,Washington Park,40.6917823,-73.9737299,24,36047003102,,0,0,,,0.0,Fulton St,536.8,0
d2b23c87-b7c3-48c2-a634-db4b76ecbcf7,Pacific St & Utica Ave,40.6767,-73.93051,20,36047030900,66889.0,933,752,37.2,0.8060021436227224,6143.7,Utica Av,296.8,1
54df610f-0e47-4958-98ca-37bb1b1c4dca,Convent Ave & W 151 St,40.82831,-73.942924,24,36061023501,71893.0,2817,2093,17.3,0.7429889953851615,15733.5,155 St,272.7,4
1786700154621508184,N Henry St & Norman Ave,40.7277,-73.94395,29,36047058901,114659.0,919,459,11.6,0.499455930359086,4557.9,Nassau Av,705.2,0
66dd056e-0aca-11e7-82f6-3863bb44ef7c,Graham Ave & Withers St,40.7169811,-73.94485918,18,36047049700,144872.0,1750,867,7.1,0.4954285714285714,10629.6,Graham Av,277.1,1
66db277a-0aca-11e7-82f6-3863bb44ef7c,St James Pl & Pearl St,40.71117416,-74.00016545,27,36061002500,20597.0,1786,1626,53.8,0.910414333706607,13580.0,Chambers St,356.8,2
66de1fe7-0aca-11e7-82f6-3863bb44ef7c,Carroll St & 5 Ave,40.6751622,-73.9814832,27,36047013300,201298.0,1807,917,1.5,0.5074709463198672,12169.0,Union St,276.0,1
66dc840f-0aca-11e7-82f6-3863bb44ef7c,E 33 St & 5 Ave,40.74765947,-73.98490707,60,36061007400,215511.0,2825,2437,13.5,0.8626548672566372,16227.7,33 St,296.1,4
59df3823-0369-4a10-8132-05df34a170af,Myrtle Ave & Fleet Pl,40.693534,-73.981909,47,36047003101,158500.0,1748,1298,5.6,0.7425629290617849,11662.5,DeKalb Av,322.4,4
d45b62b9-7d6b-43b2-bf1e-2c898c55dfd2,Amsterdam Ave & W 186 St,40.851113,-73.928808,21,36061026900,52389.0,2470,1797,14.4,0.7275303643724697,14068.5,181 St,440.6,2
09dfc0e3-a448-477c-bb3c-9467dc51ef8d,W 15 St & 6 Ave,40.738046142482766,-73.99642959237099,75,36061008100,134538.0,3824,3067,7.2,0.8020397489539749,21938.6,14 St,27.5,4
901ad0c4-383e-490a-8b54-0656ce2358d6,Bulova Ave & Brooklyn Queens Expressway W,40.762507,-73.902534,19,36081029700,101538.0,718,197,14.1,0.2743732590529248,1382.9,Northern Blvd,1109.2,0
765ee572-6c7a-4ed3-a2d4-f1496ea53996,Webster Ave & Ford St,40.85556,-73.89615,23,36005038303,45258.0,1237,974,25.8,0.7873888439773646,16211.5,182-183 Sts,390.6,1
1795146692060860976,Longfellow Ave & Aldus St,40.82319448542357,-73.88762910982096,24,36005011900,44122.0,1875,1355,23.0,0.7226666666666667,11227.6,Hunts Point Av,350.4,3
6b60bf55-3da4-439a-bde1-fc80be8623ba,Fort Washington Ave & W 173 St,40.84522,-73.940493,24,36061025300,72763.0,4028,3547,18.0,0.8805858987090367,23785.9,175 St,250.4,1
f3782e27-c49a-4ee9-b188-0c13cad54688,E 138 St & Park Ave,40.81263616769319,-73.92924964427948,21,36005005100,25851.0,2930,2588,38.2,0.8832764505119454,5740.1,138 St-Grand Concourse,82.6,2
66de13dc-0aca-11e7-82f6-3863bb44ef7c,Madison Ave & E 99 St,40.78948541553215,-73.95242929458618,35,36061016800,38833.0,1864,1663,34.3,0.8921673819742489,9353.8,103 St,434.9,2
1828966626550010820,77 St & 31 Ave,40.75886,-73.89081,20,36081030903,75728.0,1736,449,2.7,0.2586405529953917,4936.0,65 St,1207.9,0
99614ecb-2329-49fa-a13a-fa1ef2bb32d6,Clay Ave & Claremont Pkwy,40.83999,-73.90549,21,36005016700,45363.0,1154,748,37.0,0.6481802426343154,5606.4,170 St,669.8,0
ff745407-c087-4c0d-a965-98baf078f292,63 St & 59 Dr,40.71832,-73.90128,23,36081052100,84009.0,669,208,17.3,0.3109118086696562,3516.1,Middle Village-Metropolitan Av,1249.7,0
1817822909864556798,23 Ave & 31 St,40.77423301703027,-73.91274864321404,27,36081011500,113370.0,1098,612,8.2,0.5573770491803278,5917.3,Astoria-Ditmars Blvd,107.7,1
ca7ec509-cefc-4ac6-b729-08999d191051,Hazen St & 20 Ave,40.772092,-73.895166,23,36081012301,106328.0,1361,473,3.8,0.3475385745775165,2300.9,Astoria-Ditmars Blvd,1457.6,0
e85c3165-ad0a-44a3-9683-d8cf7575f465,Caton Ave & E 10 St,40.648481,-73.97058,30,36047050600,69276.0,2003,1356,17.8,0.6769845232151772,12162.6,Fort Hamilton Pkwy,507.6,0
f62526d4-9c6a-4c76-be76-c64b5be669d2,Steinway St & Ditmars Blvd,40.772717,-73.906127,21,36081011900,84886.0,713,323,6.9,0.453015427769986,6396.1,Astoria-Ditmars Blvd,560.3,0
62f8f806-bd04-4282-9c5d-ad4293644e3c,E Tremont Ave & E 176 St,40.847798,-73.901883,21,36005023100,,404,222,29.1,0.5495049504950495,3448.8,Tremont Av,404.3,1
44fa161f-eb62-459b-b53e-da83788cfa2a,Convent Ave & W 135 St,40.818215,-73.950988,30,36061021703,,0,0,,,0.0,135 St,283.2,2
66db76a1-0aca-11e7-82f6-3863bb44ef7c,E 6 St & Ave B,40.72453734,-73.98185424,95,36061003200,101294.0,4746,3687,14.4,0.7768647281921618,21802.4,2 Av,692.8,0
1786697771181570266,Kent Ave & Grand St,40.716425,-73.96594,45,36047055500,205860.0,4405,2867,3.2,0.6508513053348468,16834.2,Bedford Av,770.5,0
63a838a8-9acf-4ba1-91f5-c676f6ef2f7d,Green St & McGuinness Blvd,40.73396,-73.95204,20,36047057901,141754.0,606,360,22.5,0.594059405940594,2465.1,Greenpoint Av,354.0,1
92fc1ad7-0867-4655-b02f-ede65d336b14,49 St & 31 Ave,40.758057,-73.909831,19,36081015100,68932.0,1228,687,13.6,0.5594462540716613,9202.5,46 St,353.1,1
66dce8db-0aca-11e7-82f6-3863bb44ef7c,Montrose Ave & Bushwick Ave,40.70767788,-73.94016171,42,36047049302,82423.0,2459,2016,32.3,0.8198454656364376,15350.7,Montrose Av,27.1,2
1860188747953293684,Southern Blvd & E 180 St,40.84605,-73.88426,19,36005036300,27273.0,2458,1899,40.6,0.7725793327908869,11098.8,West Farms Sq-E Tremont Av,731.4,0
66dc6a86-0aca-11e7-82f6-3863bb44ef7c,E 24 St & Park Ave S,40.74096374,-73.98602213,79,36061005600,183068.0,2363,2044,20.0,0.8650021159542954,13547.4,23 St-Baruch College,131.6,3
cf1a96a7-f695-4ba2-bcf2-899552e21e47,Herkimer St & Eastern Pkwy,40.67738,-73.90829,20,36047036900,48583.0,2455,1753,25.7,0.7140529531568228,10827.6,Broadway Junction,272.3,5
66dc81ce-0aca-11e7-82f6-3863bb44ef7c,E 51 St & Lexington Ave,40.75714758,-73.97207836,75,36061010000,99875.0,1137,1004,7.5,0.8830255057167986,6576.3,51 St,14.1,3
66dc120f-0aca-11e7-82f6-3863bb44ef7c,W 21 St & 6 Ave,40.74173969,-73.99415556,74,36061008700,150384.0,3223,2598,10.7,0.806081290722929,19481.0,23 St,169.3,5
66880044-5411-4143-af39-eaa0a0fd0528,Park Ave & E 124 St,40.8045555,-73.9396861,36,36061019800,108250.0,1029,751,12.7,0.7298347910592808,4564.2,125 St,182.1,1
0bd9bd58-42e6-4680-9d19-83943372221f,6 Ave & 60 St,40.638196,-74.013821,22,36047010200,65668.0,1297,897,23.4,0.6915959907478797,8507.7,8 Av,390.8,2
66dc7773-0aca-11e7-82f6-3863bb44ef7c,E 20 St & Park Ave,40.73827428,-73.98751968,45,36061005000,205250.0,2760,2285,8.2,0.8278985507246377,16579.8,23 St-Baruch College,193.0,5
038b7369-9c6e-4eb2-8569-f7461443302f,Fulton St & Williams Ave,40.67709,-73.9008,21,36047036700,70426.0,705,353,28.4,0.500709219858156,3853.1,Alabama Av,181.3,6
1934749166596673908,Washington Pl & Greene St,40.72980619180496,-73.99546380915461,46,36061005900,181375.0,2381,1593,6.2,0.6690466190676186,20494.9,8 St-NYU,245.8,3
cc5f0e68-dd5f-4db1-81c7-04a4d6674fba,Goble Pl & Macombs Rd,40.844075,-73.917256,19,36005020900,38333.0,1944,1590,26.7,0.8179012345679012,14675.4,Mt Eden Av,219.9,2
66dbc37a-0aca-11e7-82f6-3863bb44ef7c,Rivington St & Ridge St,40.71850211,-73.98329859,61,36061001200,114318.0,1934,1350,12.1,0.6980351602895554,16036.9,Delancey St-Essex St,349.4,2
1848241684520917882,46 Ave & Junction Blvd,40.74399,-73.86781,19,36081046300,75539.0,1071,643,12.4,0.6003734827264239,6718.3,Junction Blvd,591.2,0
12279d2b-29f6-4e02-a7f0-244970f7edd5,37 Ave & 35 St,40.7531106,-73.9279917,26,36081005500,81310.0,580,330,7.9,0.5689655172413793,3494.7,36 St,136.5,3
1859088223746072684,Verona Pl & Fulton St,40.6803560840434,-73.9476791024208,19,36047024900,84746.0,1966,1496,14.0,0.7609359104781281,11667.9,Nostrand Av,231.8,1
66dc2995-0aca-11e7-82f6-3863bb44ef7c,W 25 St & 6 Ave,40.74395411,-73.99144871,51,36061005800,206827.0,2193,1911,13.6,0.8714090287277702,12555.2,23 St,166.4,5
66dd9fa6-0aca-11e7-82f6-3863bb44ef7c,E 48 St & 5 Ave,40.75724567911726,-73.97805914282799,62,36061009400,81875.0,34,18,28.6,0.5294117647058824,222.6,47-50 Sts-Rockefeller Ctr,317.3,2
38af3d1a-9916-46cf-b22e-86fc8648bf30,Park Ave & E 162 St,40.825716,-73.915585,21,36005017300,33269.0,2276,1611,30.2,0.7078207381370826,13771.2,161 St-Yankee Stadium,881.2,0
66de1ea2-0aca-11e7-82f6-3863bb44ef7c,Carroll St & 6 Ave,40.6740886,-73.9787282,23,36047015700,209940.0,2109,1142,2.4,0.541488857278331,12596.5,Union St,515.1,0
922763d6-d73c-4678-8bcd-f42ee3a236db,Carroll St & Utica Ave,40.66619,-73.93162,20,36047035102,70030.0,1047,727,31.4,0.6943648519579751,11243.9,Crown Hts-Utica Av,321.0,1
66dd01c5-0aca-11e7-82f6-3863bb44ef7c,Berry St & N 8 St,40.7190095,-73.95852515,27,36047055300,144083.0,1615,1024,21.0,0.6340557275541796,10334.6,Bedford Av,235.3,1
1864605386632012480,E 184 St & 3 Ave,40.85472,-73.89022,19,36005038700,44982.0,1481,1189,29.2,0.8028359216745442,8159.9,182-183 Sts,897.9,0
053312f2-e77e-4674-b28b-ad357fbcb4ee,8 Ave & W 49 St,40.76171227910671,-73.98655101656914,63,36061012700,120214.0,4117,3914,11.2,0.9506922516395434,23657.5,50 St,95.5,4
66dc1687-0aca-11e7-82f6-3863bb44ef7c,Macon St & Nostrand Ave,40.6809833854,-73.9500479759,24,36047024500,103194.0,1977,1248,10.5,0.6312594840667678,11849.0,Nostrand Av,68.5,2
1851254468343716806,60 Ave & Otis Ave,40.73715,-73.85614,21,36081043702,66731.0,2170,1089,18.3,0.5018433179723503,12378.7,63 Dr-Rego Park,933.6,0
2ebbe93b-a013-464a-b4a5-0eba96f89676,Myrtle Ave & 65 St,40.70117,-73.8904,19,36081057700,75750.0,1437,564,13.2,0.3924843423799583,7701.0,Fresh Pond Rd,724.0,0
bcb08532-f0d5-4c0e-ad8a-4ddacc204791,Madison St & Evergreen Ave,40.69122,-73.91693,18,36047041500,96110.0,1649,946,14.7,0.5736810187992722,10135.7,Gates Av,483.7,1
66dc1d80-0aca-11e7-82f6-3863bb44ef7c,W 37 St & 10 Ave,40.75660359,-73.9979009,39,36061009903,187596.0,891,709,8.3,0.7957351290684624,2119.5,34 St-Hudson Yards,347.1,1
1965202298784063998,Lafayette Ave & Franklin Ave,40.689271,-73.957324,27,36047023300,78177.0,2211,1182,34.0,0.5345997286295794,12866.8,Classon Av,235.7,2
66db6963-0aca-11e7-82f6-3863bb44ef7c,E 15 St & 3 Ave,40.734232,-73.986923,66,36061005000,205250.0,2760,2285,8.2,0.8278985507246377,16579.8,3 Av,167.9,4
c63a83a0-bda1-40a6-835b-f82c363543b9,E 128 St & Madison Ave,40.80756,-73.939182,23,36061020600,50864.0,1786,1470,30.0,0.8230683090705487,12006.9,125 St,403.3,1
66ddb66e-0aca-11e7-82f6-3863bb44ef7c,E 58 St & 1 Ave (NE Corner),40.75892386377695,-73.96226227283478,29,36061010601,249091.0,4152,2649,3.5,0.6380057803468208,34044.2,Lexington Av/59 St,591.3,0
1835250442210857240,Kingston Ave & E New York Ave,40.66219,-73.94293,21,36047080600,66632.0,1311,826,25.9,0.6300533943554538,7882.9,Sterling St,670.9,0
6969d756-33a6-4a0b-83d0-3db38bc382d1,53 St & 2 Ave,40.64744,-74.018846,30,36047001803,,0,0,72.7,,0.0,53 St,484.1,1
1937777808143497236,Columbus Ave & W 59 St,40.76931,-73.98464,44,36061014500,186389.0,3412,2690,6.1,0.7883939038686987,19261.9,59 St-Columbus Circle,257.1,2
d8778570-f7f2-458d-82f5-9ad39210a501,E 5 St & Cooper Sq,40.72769,-73.990993,50,36061003800,78220.0,4511,4094,17.7,0.9075592994901353,22290.9,Astor Pl,262.9,4
2126224996973581072,Fort Hamilton Pkwy & 85 St,40.62095,-74.02388,14,36047014200,81250.0,1264,788,25.0,0.6234177215189873,6313.0,86 St,427.4,1
83a5d761-57d0-4cd6-aa2b-7eb350120d99,Home St & Westchester Ave,40.827629,-73.886659,21,36005012101,34464.0,1057,783,32.4,0.7407757805108799,9142.4,Whitlock Av,126.8,1
1871698348432996504,Taylor St & Bedford Ave,40.705774,-73.963252,23,36047054500,42071.0,2454,1819,34.2,0.741238793806031,14627.4,Marcy Av,545.1,0
1927314940904608224,W 160 St & Riverside Dr,40.83719,-73.9466,27,36061024700,83605.0,2705,2037,19.2,0.7530499075785583,10552.1,157 St,378.6,1
3e1bdcec-e762-4e83-b447-007f05923cce,19 St & 24 Ave,40.7774552,-73.9225403,23,36081009700,121088.0,1519,478,9.0,0.3146807109940751,7527.1,Astoria Blvd,892.7,0
d040a7b3-85b5-4c0d-9c92-3f4ad0082143,E 170 St & Sheridan Ave,40.838315,-73.912604,30,36005017902,42870.0,1216,1138,15.9,0.9358552631578948,15681.4,170 St,128.9,2
66dc80b4-0aca-11e7-82f6-3863bb44ef7c,W 52 St & 5 Ave,40.75992262,-73.97648516,61,36061010400,193026.0,596,460,2.5,0.7718120805369127,3440.5,5 Av/53 St,109.6,4
ab6aadd8-fa45-43aa-abea-c8e01ec5a0c8,Stagg St & Morgan Ave,40.710681,-73.93372,23,36047048500,130278.0,1046,645,25.2,0.6166347992351816,1798.7,Morgan Av,505.9,0
068b919c-f649-4091-8e12-ccf37191cad5,Wilkins Ave & Crotona Park E,40.835302,-73.895133,19,36005015300,33028.0,1781,1332,24.9,0.7478944413250983,7520.0,Freeman St,651.2,0
2124037250266884686,Colonial Rd & 89 St,40.62254,-74.03726,12,36047005201,40789.0,968,501,21.6,0.5175619834710744,7241.3,86 St,748.1,0
1835246937517543544,24 Ave & 92 St,40.76589,-73.87789,20,36081034700,77025.0,1025,231,20.9,0.2253658536585366,2677.8,90 St-Elmhurst Av,1946.9,0
2126623007192357636,83 St & Narrows Ave,40.62757,-74.03838,12,36047004600,134773.0,512,94,9.9,0.18359375,1771.1,86 St,1002.3,0
82c85f05-4722-48ae-9f64-0522012eb3c8,Southern Blvd & E 174 St,40.836733,-73.887931,27,36005016100,23210.0,2224,1908,37.5,0.8579136690647482,9300.6,174 St,63.9,1
ef6216aa-d3c8-46bb-8c6b-b62f8ba51b16,Van Sinderen Ave & Truxton St,40.6786,-73.90369,23,36047036700,70426.0,705,353,28.4,0.500709219858156,3853.1,Broadway Junction,47.4,6
66dbee85-0aca-11e7-82f6-3863bb44ef7c,Fulton St & Clermont Ave,40.68415748,-73.96922273,75,36047017900,103836.0,1414,889,30.2,0.6287128712871287,8933.0,Clinton-Washington Avs,302.2,3
c80c55c4-d623-42d7-8acf-6bfa68a84ecb,3 Ave & E 169 St,40.832678,-73.905158,21,36005014500,28104.0,2433,1930,53.0,0.7932593505959721,13375.3,170 St,1011.9,0
2a66ed0a-5e6d-4893-a1d1-876bb2bac4be,E 174 St & Walton Ave,40.844811,-73.912042,27,36005022702,34145.0,545,437,47.5,0.8018348623853211,11504.7,174-175 Sts,200.9,3
5145ad1c-241f-4448-a742-739bd5c518c2,64 St & 51 Ave,40.73577,-73.90184,19,36081024300,60880.0,2344,614,8.1,0.2619453924914676,4339.7,61 St-Woodside,1100.6,0
816e50eb-dc4b-47dc-b773-154e2020cb0d,52 St & 6 Ave,40.642703,-74.009441,19,36047010000,57881.0,1840,1198,23.5,0.6510869565217391,12187.9,53 St,468.4,1
1962547377975794462,Carlton Ave & Greene Ave,40.685957,-73.971468,25,36047017900,103836.0,1414,889,30.2,0.6287128712871287,8933.0,Lafayette Av,209.7,4
1860189327773878824,Crotona Ave & E 183 St,40.85157,-73.88475,25,36005039300,27776.0,3092,2425,37.7,0.7842820181112549,17015.2,West Farms Sq-E Tremont Av,1314.6,0
2104286315955915532,W 47 St & 6 Ave,40.758154,-73.981957,68,36061012500,171250.0,1452,1325,12.1,0.912534435261708,8332.7,47-50 Sts-Rockefeller Ctr,77.5,6
754ac5df-f2b5-4636-8c58-ed84ea262bde,Bailey Ave & Sedgwick Ave,40.86571,-73.90857,20,36005026900,27569.0,1926,1484,37.7,0.770508826583593,5041.9,215 St,700.5,0
66dde69c-0aca-11e7-82f6-3863bb44ef7c,6 St & 7 Ave,40.6686627,-73.97988067,21,36047015300,154286.0,1196,764,4.3,0.6387959866220736,7948.1,7 Av,268.3,1
c3062f44-c5b9-4650-a4ec-cc66cbf5b944,Grand Concourse & E 199 St,40.87142,-73.88839,21,36005040702,33946.0,2801,2140,27.9,0.7640128525526597,15376.3,Bedford Park Blvd,228.5,2
2171919049376995084,10 Ave & W 34 St,40.75476986284269,-73.99914588449698,33,36061009903,187596.0,891,709,8.3,0.7957351290684624,2119.5,34 St-Hudson Yards,263.6,1
1848241791125254746,51 Ave & Junction Blvd,40.74087,-73.86772,19,36081045900,72279.0,1091,480,11.7,0.4399633363886343,7970.1,Woodhaven Blvd,872.6,0
66dd2060-0aca-11e7-82f6-3863bb44ef7c,India St & Manhattan Ave,40.73232194,-73.9550858,50,36047056301,133636.0,2422,1386,13.3,0.5722543352601156,13492.0,Greenpoint Av,120.5,1
66dcc0b2-0aca-11e7-82f6-3863bb44ef7c,Marcy Ave & Lafayette Ave,40.6900815,-73.947915,23,36047026300,85546.0,939,553,17.8,0.5889243876464324,7850.9,Bedford-Nostrand Avs,475.4,1
499e10ad-c008-461e-8cf7-20757218a9cc,31 Ave & 57 St,40.757357,-73.904726,23,36081029700,101538.0,718,197,14.1,0.2743732590529248,1382.9,Northern Blvd,508.8,0
645e4365-653f-48ce-bc15-5fcc287be56f,E 7 St & Ave B,40.7251285241158,-73.98131668567657,69,36061003200,101294.0,4746,3687,14.4,0.7768647281921618,21802.4,1 Av,648.2,0
6542d952-ca19-410e-9290-ee6b7a6e14cf,Decatur Ave & Bedford Park Blvd,40.86813,-73.88412,20,36005041500,50579.0,2293,1752,23.2,0.7640645442651548,16877.9,Bedford Park Blvd,622.7,0
1814906692908349788,E 17 St & Beverley Rd,40.64466,-73.96322,23,36047051200,96719.0,2178,1358,11.6,0.6235078053259872,15558.0,Beverley Rd,128.1,2
1828965347681089818,Turner Pl & Coney Island Ave,40.64521,-73.97073,20,36047049200,103269.0,1258,541,17.0,0.4300476947535771,7549.4,Beverley Rd,542.4,0
66dc2c78-0aca-11e7-82f6-3863bb44ef7c,Broadway & W 53 St,40.76344058,-73.98268129,85,36061013100,136346.0,2250,2072,9.0,0.9208888888888888,12921.0,7 Av,109.0,6
9394fb49-583f-4426-8d2f-a2b0ffb584d2,Stanton St & Norfolk St,40.720747,-73.986274,49,36061003001,88889.0,2294,1957,18.6,0.8530950305143854,18477.6,Delancey St-Essex St,283.7,3
2126623765785393224,89 St & 3 Ave,40.62137,-74.03209,20,36047006000,88542.0,969,305,3.3,0.3147574819401444,6364.1,86 St,344.3,1
dd482585-3028-453f-a98d-55019db9b26c,2 Ave & 36 St,40.65708866668485,-74.00870203971863,43,36047001802,,0,0,,,0.0,36 St,485.5,1
66db9c2e-0aca-11e7-82f6-3863bb44ef7c,Ave D & E 12 St,40.72580614,-73.97422494,41,36061002400,21092.0,1797,1516,48.2,0.8436282693377852,9855.4,1 Av,846.6,0
2124037125711300644,4 Ave & 85 St,40.62354,-74.02817,23,36047006200,83500.0,1098,553,17.2,0.5036429872495446,6766.4,86 St,96.8,1
81a98b0b-cfd6-48b4-90bd-806ebbc264a0,Montgomery St & Franklin Ave,40.666439306870814,-73.9605563879013,19,36047021300,82426.0,2041,1350,24.1,0.6614404703576678,11083.0,Botanic Garden,447.9,1
3db799ba-b574-4e5f-95e5-c767bec2acb6,Melrose Ave & E 150 St,40.816827,-73.917338,31,36005006500,22740.0,2245,1996,54.3,0.889086859688196,8574.9,3 Av-149 St,87.3,1
66de12ff-0aca-11e7-82f6-3863bb44ef7c,W 107 St & Columbus Ave,40.7997568,-73.9621128676,23,36061019300,67090.0,4112,3269,21.0,0.7949902723735408,23401.7,Cathedral Pkwy (110 St),345.7,2
8a89684b-40a5-49fe-b75d-fdf32ffa8102,Southern Blvd & Tiffany St,40.818185,-73.894143,20,36005008900,35914.0,1346,1172,25.8,0.8707280832095097,12204.1,Longwood Av,301.2,3
1862788202397235246,Bailey Ave & W 229 St,40.87449,-73.90467,21,36005027300,51730.0,2979,2049,26.7,0.6878147029204431,14663.2,Marble Hill-225 St,434.0,2
66de2b2f-0aca-11e7-82f6-3863bb44ef7c,3 St & Hoyt St,40.6777287,-73.99364123,53,36047007700,212827.0,2901,1676,5.2,0.5777318166149603,7449.5,Carroll St,309.9,1
1882824287789509296,3 Ave & E 71 St,40.76879,-73.9614,47,36061012800,220256.0,2623,1474,3.1,0.5619519634006862,14670.5,68 St-Hunter College,220.2,2
1786698321265653818,S 4 St & Roebling St,40.710709,-73.959724,41,36047052300,74454.0,2403,1911,26.4,0.7952559300873908,16577.1,Marcy Av,309.5,1
4c03fa2d-89da-4f0b-8f19-c7de5edbe256,E 147 St & Bergen Ave,40.814673,-73.91839,25,36005004300,23393.0,2230,1829,47.1,0.8201793721973094,9893.7,3 Av-149 St,168.3,1
cb9840a3-4ae2-420d-865c-9ac45e2f5485,St Ann's Ave & Bruckner Blvd,40.803399,-73.919763,17,36005001902,48953.0,624,337,39.6,0.5400641025641025,1328.4,Brook Av,465.4,1
fda18503-7488-4b91-b74c-949a90401e83,39 St & 50 Ave,40.73824937345944,-73.92737478017807,19,36081018700,89479.0,986,458,14.7,0.4645030425963489,4083.6,40 St-Lowery St,677.1,0
66dd3d7f-0aca-11e7-82f6-3863bb44ef7c,E 68 St & 3 Ave,40.76712840349542,-73.96224617958069,36,36061011800,139332.0,5148,3353,7.3,0.6513209013209014,29123.9,68 St-Hunter College,177.1,3
823ef531-40e6-4397-b973-86bf5b032076,Eastern Pkwy & Troy Ave,40.66929,-73.93679,24,36047033701,93620.0,945,694,11.5,0.7343915343915344,9577.2,Crown Hts-Utica Av,327.5,2
1869753484503987044,Sedgwick Ave & W 231 St,40.87512,-73.90126,19,36005027300,51730.0,2979,2049,26.7,0.6878147029204431,14663.2,231 St,512.7,0
1814907423052790164,E 16 St & Cortelyou Rd,40.64173,-73.96364,26,36047152200,215602.0,1417,348,3.7,0.2455892731122089,3634.6,Cortelyou Rd,91.8,2
493850bd-125b-49f5-932b-bf999504fb06,Cauldwell Ave & E 161 St,40.82188,-73.907521,18,36005007500,34259.0,2430,1851,43.3,0.7617283950617284,10675.6,Prospect Av,547.1,0
2124036103510616644,78 St & Ridge Blvd,40.62994,-74.03121,12,36047006400,98846.0,1460,678,17.9,0.4643835616438356,7185.9,77 St,481.5,1
1859438049977968878,Broadway & W 157 St,40.83402740143528,-73.94510813442648,31,36061024100,59500.0,3228,2523,21.2,0.7815985130111525,18055.6,157 St,18.4,3
d80c274e-d17d-4a00-9b76-274c9fe4d0e1,Morningside Dr & Amsterdam Ave,40.81028506306003,-73.95736455917358,35,36061019701,57292.0,515,414,34.0,0.8038834951456311,2182.4,125 St,432.4,1
93da4d1b-d574-45b0-85d7-5b82e2887267,65 St & 2 Ave,40.640493,-74.02564,21,36047002200,41852.0,1592,954,25.0,0.5992462311557789,4681.7,Bay Ridge Av,643.4,0
20ff5447-eac3-43b7-820f-f6fa3a2e12a8,Pleasant Ave & E 120 St,40.7974772,-73.9311847,21,36061019200,19525.0,1626,1387,46.9,0.8530135301353013,8564.7,116 St,887.4,0
81bec993-29a5-4e70-8f60-eecdf16c7be4,Railroad Ave & Kay Ave,40.70514807698391,-73.97078096866608,30,36047054300,,0,0,,,0.0,Marcy Av,1154.4,0
66de43a5-0aca-11e7-82f6-3863bb44ef7c,E 106 St & Madison Ave,40.7934337,-73.94945003,25,36061016800,38833.0,1864,1663,34.3,0.8921673819742489,9353.8,103 St,356.2,2
18415ea7-efce-408d-bcb9-4693fb088dda,Broadway & Berry St,40.71036129922581,-73.96530389785767,34,36047054900,183091.0,2086,1488,15.5,0.713326941514861,10673.2,Marcy Av,674.0,0
00967b8f-1a4d-4131-a65a-17fa8ca89e28,41 Ave & 67 St,40.74446,-73.89764,20,36081026300,87232.0,2113,1188,13.6,0.5622337908187411,10165.4,69 St,232.1,2
c3189056-8eda-4278-891f-e8e15c2d759a,Carlton Ave & Dean St,40.6809741,-73.9710097,29,36047016300,196630.0,1988,1271,8.0,0.6393360160965795,10798.9,Bergen St,345.1,2
1869743938848725856,9 Ave & W 33 St,40.752568,-73.996765,94,36061010300,180200.0,1594,1483,3.7,0.9303638644918444,9136.3,34 St-Penn Station,285.9,1
1869753654337059182,Marble Hill Ave & W 225 St,40.87471,-73.91099,21,36061030900,40438.0,3355,2307,36.7,0.6876304023845008,11081.5,Marble Hill-225 St,98.8,1
2126622241630343402,4 Ave & 76 St,40.63005,-74.0255,23,36047006400,98846.0,1460,678,17.9,0.4643835616438356,7185.9,77 St,34.3,1
1860189650739626488,E 188 St & Hughes Ave,40.8561,-73.88625,21,36005038900,46471.0,1954,1545,34.7,0.7906857727737974,11470.8,Fordham Rd,1126.5,0
292ad4f3-9fb0-44ec-9e61-613c711f73c1,Pacific St & Classon Ave,40.6791944,-73.9587903,21,36047030500,122353.0,3332,2128,13.1,0.6386554621848739,10331.3,Franklin Av,293.1,2
1d32e684-602b-46b6-8c96-ab47b57a03f3,Grand Ave & Bergen St,40.678045,-73.962408,25,36047020500,164926.0,1586,791,3.4,0.4987389659520807,9930.4,Park Pl,543.3,0
1815967442754883940,Church Ave & Nostrand Ave,40.65074,-73.94986,30,36047082400,57204.0,2067,1403,23.8,0.6787614900822448,9642.4,Church Av,26.6,1
66dd45c7-0aca-11e7-82f6-3863bb44ef7c,E 84 St & 1 Ave,40.77565541,-73.95068615,31,36061013800,141343.0,6641,5342,5.5,0.8043969281734679,36470.6,86 St,265.3,1
66de85d2-0aca-11e7-82f6-3863bb44ef7c,Grand St & Elizabeth St,40.718822,-73.99596,45,36061004100,101893.0,3095,2351,13.4,0.7596122778675283,16180.6,Grand St,196.0,7
1846086362824884662,56 Ave & 92 St,40.73649,-73.86995,25,36081068300,85771.0,1571,965,11.6,0.614258434118396,6428.2,Woodhaven Blvd,381.2,1
5a24acbb-94ef-4cb5-9db8-f6073ac26a2b,21 St & 23 Ave,40.778557,-73.919046,22,36081009700,121088.0,1519,478,9.0,0.3146807109940751,7527.1,Astoria-Ditmars Blvd,708.4,0
579e583e-60ab-4f2a-83d0-fabebddfcd0f,Broadway & Ellwood St,40.862058,-73.929719,19,36061028500,51026.0,2286,1881,30.2,0.8228346456692913,18746.9,Dyckman St,390.6,2
66de2199-0aca-11e7-82f6-3863bb44ef7c,5 Ave & 3 St,40.6728155,-73.98352355,30,36047013500,221920.0,1591,581,1.8,0.3651791326209931,10476.3,4 Av-9 St,458.6,1
66de4959-0aca-11e7-82f6-3863bb44ef7c,Clinton St & 4 Place,40.6783563,-74.00014502,25,36047006500,202355.0,2456,1019,4.0,0.4149022801302932,9824.5,Carroll St,481.2,1
0dd71c6d-11ee-4ad4-ba99-36b9ad36112c,St Marks Ave & Thomas S. Boyland St,40.67313,-73.91387,21,36047036300,58091.0,2105,1223,19.4,0.5809976247030879,8104.7,Rockaway Av,601.6,0
0de1f95f-8b1b-4e5e-9eff-73c63265b0ab,35 St & 30 Ave,40.76547569244953,-73.91811579465866,29,36081006502,80539.0,1829,1099,15.2,0.6008747949699289,11925.7,30 Av,318.2,1
26217b73-7bb5-46e6-8094-1db05becd617,Amsterdam Ave & W 156 St,40.832081,-73.942386,27,36061023900,48816.0,1271,974,18.1,0.7663257277734068,19906.0,155 St,188.6,4
1835246658344669972,96 St & Northern Blvd,40.75712,-73.8722,20,36081036100,92500.0,768,234,12.2,0.3046875,4880.0,Junction Blvd,914.9,0
a2cf5872-bd4c-4311-832e-d62fd779ecc3,Parkside Ave & Flatbush Ave,40.65563,-73.95968,25,36047079601,81629.0,1581,1260,19.0,0.7969639468690702,14320.8,Parkside Av,157.7,1
1975518133370609774,Broadway & E 19 St,40.73829,-73.99006,99,36061005200,238750.0,1382,1106,5.8,0.8002894356005789,8182.7,14 St-Union Sq,287.2,5
66de0d91-0aca-11e7-82f6-3863bb44ef7c,Union St & 4 Ave,40.6772744,-73.98282002,28,36047013300,201298.0,1807,917,1.5,0.5074709463198672,12169.0,Union St,24.9,1
943a1a27-1328-4823-8945-28d845280383,Isham St & Broadway,40.86788,-73.919685,29,36061029300,35987.0,2921,2392,35.8,0.8188976377952756,18596.1,Inwood-207 St,27.9,3
1862008701134683118,Arthur Ave & E 183 St,40.85307,-73.88953,25,36005039100,34663.0,3026,1659,33.6,0.5482485128883013,14709.1,182-183 Sts,1001.0,0
cb05443c-e68e-48f7-8d17-35353fa19d4d,W 34 St & Hudson Blvd E,40.75516719072139,-74.00059908628464,57,36061009903,187596.0,891,709,8.3,0.7957351290684624,2119.5,34 St-Hudson Yards,136.1,1
af72ab76-c6cb-4994-af96-51fa8846ecdc,Bergen St & Saratoga Ave,40.67423,-73.91656,20,36047030300,43275.0,2198,1628,27.8,0.740673339399454,8667.8,Rockaway Av,600.2,0
66de0cab-0aca-11e7-82f6-3863bb44ef7c,Columbia St & Lorraine St,40.6747055,-74.0075572,37,36047008500,27854.0,2995,2648,36.8,0.8841402337228714,12296.0,Smith-9 Sts,986.1,0
66dc7f02-0aca-11e7-82f6-3863bb44ef7c,Park Ave & E 41 St,40.751581,-73.97791,109,36061008000,177105.0,2830,2431,6.6,0.8590106007067138,16393.8,Grand Central-42 St,92.0,4
66dbe15d-0aca-11e7-82f6-3863bb44ef7c,Franklin Ave & Myrtle Ave,40.694546087246025,-73.95801365375519,27,36047123700,55861.0,1546,899,40.0,0.5815006468305304,4810.8,Classon Av,654.2,0
c602146e-d69d-43b6-9e8f-054c4df5377e,Seneca Ave & Irvine St,40.81872569990116,-73.88862490653992,19,36005011502,30922.0,1513,1089,38.4,0.719762062128222,4499.0,Hunts Point Av,295.4,1
b4b5824b-3c23-44b7-92a3-cec6a54583a0,Morris Ave & E 171 St,40.83899,-73.9109,21,36005022500,50243.0,2225,1672,25.7,0.7514606741573033,12359.6,170 St,213.2,1
2124036994734951288,Shore Rd & 86 St,40.62561,-74.04079,12,36047005000,134013.0,1069,262,10.3,0.245088868101029,4772.5,86 St,1095.2,0
eb07bdfc-3a6f-40eb-96d2-0b92ac371619,Eastern Pkwy & Brooklyn Ave,40.66939,-73.94514,21,36047033702,87165.0,575,372,15.2,0.6469565217391304,5813.1,Kingston Av,251.2,3
1917312704757770810,1 Ave & E 38 St,40.746202,-73.971822,39,36061007800,134092.0,4885,4200,6.7,0.8597748208802457,27525.2,Grand Central-42 St,681.5,0
1828967979464708718,87 St & Roosevelt Ave,40.74825,-73.87936,23,36081027900,81417.0,2404,816,8.1,0.3394342762063227,13570.0,90 St-Elmhurst Av,232.1,2
2124035976827702128,68 St & 4 Ave,40.63537,-74.02342,16,36047006800,80938.0,1637,1068,13.6,0.6524129505192425,8824.4,Bay Ridge Av,45.0,1
1859808514684217788,National St & 45 Ave,40.74582,-73.86433,22,36081041100,73899.0,1225,667,18.1,0.5444897959183673,8897.8,103 St-Corona Plaza,470.3,1
66de4bbb-0aca-11e7-82f6-3863bb44ef7c,Smith St & 9 St,40.6746957,-73.99785768,23,36047007700,212827.0,2901,1676,5.2,0.5777318166149603,7449.5,Smith-9 Sts,202.6,1
98ebf9c6-1d94-4e21-9007-c623875fdb5e,E 144 St & Brook Ave,40.811675,-73.917037,19,36005004100,14592.0,2468,1891,53.9,0.7662074554294975,13359.9,Brook Av,493.1,2
493e046c-5d62-4772-90c4-b6a9f4afcd39,Willoughby Ave & Myrtle Ave,40.69757,-73.93098,19,36047039100,103796.0,2539,1751,24.5,0.689641591177629,15279.3,Central Av,303.7,2
74723006-b32f-4590-8cc7-f15eec3808fe,Bushwick Ave & Linden St,40.69146,-73.92146,29,36047039900,50329.0,1635,1119,28.3,0.6844036697247706,10810.3,Gates Av,214.6,1
566a6389-5c22-49ca-8c24-4d9eea135170,55 St & 5 Ave,40.642408,-74.013318,28,36047007600,73681.0,1280,910,14.7,0.7109375,9252.8,53 St,302.0,2
cd2d9dab-7708-4685-a56f-9412c738de7e,Rutland Rd & E 45 St,40.66034,-73.93618,23,36047087600,48125.0,715,428,21.2,0.5986013986013986,5027.7,Crown Hts-Utica Av,989.9,0
66de0a78-0aca-11e7-82f6-3863bb44ef7c,Henry St & Bay St,40.6725058,-74.00494695,19,36047005302,139609.0,45,29,0.0,0.6444444444444445,57.8,Smith-9 Sts,767.4,0
0630217a-3913-47d9-9540-cf85688296a5,37 St & 24 Ave,40.7701477,-73.9120938,19,36081011700,125550.0,1712,764,9.7,0.4462616822429907,8044.1,Astoria Blvd,484.3,1
f5393bc2-36d4-4508-bf51-fa48d121f751,61 St & Queens Blvd,40.74091,-73.90273,27,36081024500,62647.0,2198,684,4.3,0.3111919927206551,8530.6,61 St-Woodside,525.3,0
1bb1af93-b433-4da7-8054-009c85f7755a,Jerome Ave & Anderson Ave,40.830179,-73.928747,19,36005018900,54056.0,3050,2346,25.9,0.7691803278688525,8577.8,161 St-Yankee Stadium,345.3,2
1804892772559499512,W 25 St & 8 Ave,40.74649996333341,-73.99732626293645,33,36061009100,160866.0,3801,3191,14.4,0.8395159168639832,21223.0,23 St,89.4,3
1828968883163894358,24 Ave & 87 St,40.7654,-73.88256,20,36081032900,66573.0,1174,213,14.6,0.1814310051107325,2687.0,90 St-Elmhurst Av,1954.7,0
f3140fb8-347b-4dca-96df-eeef2d1bfc50,Morris Ave & E 163 St,40.827230499624726,-73.91765579597632,20,36005018302,68627.0,1452,1172,23.9,0.8071625344352618,12931.3,161 St-Yankee Stadium,676.9,0
563389a0-d90f-4155-9c50-528459df26aa,Broadway & W 138 St,40.82182,-73.95353,27,36061022301,50668.0,2610,2162,31.9,0.828352490421456,13971.4,137 St-City College,24.2,1
e9575102-1081-4c30-8d15-ea95913579e2,Bergen St & Buffalo Ave,40.6747,-73.92512,21,36047030700,50049.0,2861,2026,27.9,0.7081440055924502,10717.0,Ralph Av,586.2,0
66de73fd-0aca-11e7-82f6-3863bb44ef7c,Richardson St & N Henry St,40.71907891179564,-73.94223690032959,25,36047047700,179175.0,1887,1115,9.1,0.5908850026497086,8663.7,Graham Av,524.7,0
0fa27bd7-b182-4e7a-b5bb-90f4249cb368,34 Ave & 21 St,40.7628138,-73.9342862,23,36081004300,26814.0,1008,677,31.0,0.6716269841269841,5901.2,Broadway,747.5,0
c71cca54-17f6-42bc-ba94-3f5bd9c70197,Bridge St & Front St,40.70296934155272,-73.98469090461731,47,36047002100,250001.0,2800,1537,9.0,0.5489285714285714,5293.5,York St,246.4,1
f8c242cd-da59-4f0e-afd6-832bbdd7d328,W 211 St & 10 Ave,40.86709406268147,-73.9172950387001,20,36061029300,35987.0,2921,2392,35.8,0.8188976377952756,18596.1,Inwood-207 St,244.5,3
6fab98b7-b06a-49d8-a4d1-087ffce0ebcf,Boston Rd & Prospect Ave,40.833246,-73.896599,19,36005015100,31298.0,2117,1481,31.7,0.6995748700991969,10132.4,Freeman St,538.0,0
3f05490b-a3d8-4d15-bd25-0212555b5dff,Fort Hamilton Pkwy & E 5 St,40.649037,-73.97673,23,36047050001,124177.0,945,400,12.0,0.4232804232804232,6747.6,Fort Hamilton Pkwy,210.1,1
c2bb1874-bcb7-47c5-aa7d-05423b9087e8,Sterling Pl & New York Ave,40.67234,-73.94763,25,36047031702,115512.0,1553,1005,10.1,0.6471345782356729,11109.7,Nostrand Av,366.1,1
1828965172312150882,New York Ave & Snyder Ave,40.64868,-73.94635,22,36047085600,79107.0,1365,535,14.6,0.3919413919413919,8605.0,Church Av,363.1,2
b79c8433-9dd1-4d68-9156-7f2c2162bafe,35 St & 23 Ave,40.77301508291382,-73.91119033098221,28,36081011700,125550.0,1712,764,9.7,0.4462616822429907,8044.1,Astoria-Ditmars Blvd,235.7,1
66dd217d-0aca-11e7-82f6-3863bb44ef7c,Franklin St & Dupont St,40.73564,-73.95866,27,36047056302,76351.0,1434,1162,9.9,0.810320781032078,7516.8,Greenpoint Av,594.3,0
66ddec3e-0aca-11e7-82f6-3863bb44ef7c,14 St & 7 Ave,40.663779,-73.98396846,24,36047014901,166161.0,635,294,8.4,0.462992125984252,8469.7,7 Av,415.0,1
7f4753d7-8d58-48bd-a881-de5bff08b27d,72 St & 41 Ave,40.7448,-73.89377,26,36081026502,74643.0,420,246,6.0,0.5857142857142857,6013.7,69 St,279.2,3
2124425439157234232,68 St & 5 Ave,40.63416,-74.02058,14,36047012600,81477.0,892,415,18.8,0.4652466367713004,3779.9,Bay Ridge Av,252.5,1
66dde76a-0aca-11e7-82f6-3863bb44ef7c,E 98 St & Park Ave,40.78813,-73.95206,25,36061016800,38833.0,1864,1663,34.3,0.8921673819742489,9353.8,96 St,285.7,2
7a6fc75f-a605-4dd6-b567-b2bbbfb862f3,65 Pl & 53 Ave,40.73145,-73.90022,19,36081051500,102833.0,1192,214,4.7,0.1795302013422818,5312.8,61 St-Woodside,1593.8,0
3a89411a-0bc6-4ba3-bc56-fab950c8eba1,Central Ave & Flushing Ave,40.702831,-73.9333,21,36047042500,86316.0,1148,831,14.5,0.7238675958188153,6839.6,Morgan Av,369.5,1
1d3a8670-09b3-4127-b750-af5311e565f0,Mount Eden Pkwy & Eastburn Ave,40.842675,-73.908544,19,36005017100,,0,0,,,0.0,174-175 Sts,382.8,1
162d5859-b735-4ff7-9613-01b21f22c1cd,Lafayette Ave & Ft Greene Pl,40.68700231292619,-73.97664964199066,36,36047003300,136217.0,2507,2179,9.6,0.8691663342640606,15232.3,Fulton St,108.3,6
6cd10426-b4e9-40e1-9b35-61f609190ac0,31 St & Hoyt Ave N,40.7711528,-73.9170074,35,36081012500,93309.0,637,321,7.7,0.5039246467817896,3906.8,Astoria Blvd,121.9,1
66de71af-0aca-11e7-82f6-3863bb44ef7c,Hanson Pl & Ashland Pl,40.68506807308177,-73.97790759801863,39,36047003500,123417.0,1167,797,10.2,0.6829477292202228,8772.6,Atlantic Av-Barclays Ctr,81.4,6
77e31650-e86a-4b06-b2de-b92df2a7a7f5,34 Ave & Vernon Blvd,40.76535380385866,-73.93986314535141,30,36081003900,59988.0,519,170,19.7,0.327552986512524,3531.3,21 St-Queensbridge,1264.9,0
66db408f-0aca-11e7-82f6-3863bb44ef7c,Harrison St & Hudson St,40.71870987,-74.0090009,39,36061003900,202542.0,2699,1355,18.6,0.5020377917747314,8152.3,Franklin St,190.6,3
18eccc71-66be-4e4c-8335-095a9bf0df94,Adam Clayton Powell Blvd & W 126 St,40.809495347779475,-73.94776493310928,33,36061022200,84071.0,1571,1139,18.7,0.7250159134309357,8659.4,125 St,272.0,2
7779e057-b33e-46a7-8a1e-8c28bcd9a558,Thomas S. Boyland St & Macon St,40.68491,-73.91493,21,36047037300,71786.0,2012,1456,20.5,0.7236580516898609,11779.2,Halsey St,212.7,2
66db9e99-0aca-11e7-82f6-3863bb44ef7c,Stanton St & Mangin St,40.71782143,-73.97628939,19,36061001002,23796.0,2510,2049,47.7,0.8163346613545817,12570.0,Delancey St-Essex St,941.1,0
2121032386733337206,37 St & 13 Ave,40.64166,-73.98505,16,36047022600,86655.0,543,298,11.1,0.5488029465930019,3476.7,Church Av,524.9,0
dad39e68-53f5-47c2-87e2-b1cc0e34f90f,5 Ave & W 131 St,40.81014,-73.93973,20,36061020800,73197.0,2235,1659,23.5,0.7422818791946308,15043.8,135 St,463.0,1
19b61564-7629-41b4-80c8-1756135a5442,Cauldwell Ave & E 158 St,40.81989,-73.908351,19,36005007500,34259.0,2430,1851,43.3,0.7617283950617284,10675.6,Jackson Av,380.8,1
66dd1d9c-0aca-11e7-82f6-3863bb44ef7c,Meserole Ave & Manhattan Ave,40.72708584,-73.95299117,28,36047056100,151875.0,1761,1132,6.1,0.6428165814877911,5202.1,Nassau Av,308.4,2
3134c2d4-b090-4eb8-ab44-6f9622098f72,W 148 St & Amsterdam Ave,40.827075,-73.945909,23,36061023100,69949.0,2724,2088,21.0,0.7665198237885462,14911.8,145 St,292.0,3
66db41bf-0aca-11e7-82f6-3863bb44ef7c,MacDougal St & Washington Sq,40.73226398,-73.99852205,33,36061006300,173995.0,3445,2744,10.6,0.7965166908563135,19333.5,W 4 St-Wash Sq,166.4,3
2138075988152462096,Ditmas Ave & McDonald Ave,40.63548,-73.97825,23,36047047800,60590.0,1205,697,26.6,0.5784232365145229,5447.0,Ditmas Av,71.4,1
61f2ffd4-159a-42b3-a4d9-3fdfc3349074,Halsey St & Evergreen Ave,40.68858,-73.91227,22,36047041300,110996.0,1449,871,19.8,0.601104209799862,8935.3,Halsey St,437.2,1
6fd61eee-d0ef-4580-9704-bd06b82bcb61,E 56 St & Madison Ave,40.761573,-73.972628,33,36061011202,211563.0,313,217,2.5,0.6932907348242812,4012.4,5 Av/53 St,268.8,5
1950648049868542106,Bainbridge Ave & E 193 St,40.86415477605928,-73.892452880543,27,36005039901,43503.0,1678,1125,20.3,0.6704410011918951,11064.7,Kingsbridge Rd,326.2,1
b713367c-3572-4225-b74a-9319ab537838,Sedgwick Ave & Hall of Fame Terrace,40.859532,-73.913303,19,36005024900,,0,0,,,0.0,207 St,731.9,0
66dced76-0aca-11e7-82f6-3863bb44ef7c,Broadway & Roebling St,40.70924826276157,-73.96063148975372,27,36047052500,70625.0,1418,974,20.1,0.68688293370945,11422.2,Marcy Av,261.7,1
66dc8a3d-0aca-11e7-82f6-3863bb44ef7c,Lexington Ave & E 24 St,40.74025878,-73.98409214,79,36061006800,128919.0,3276,2713,10.9,0.8281440781440782,18780.0,23 St-Baruch College,215.7,3
1096fc76-794e-4343-8eb0-0dd6c9a48266,E 201 St & Briggs Ave,40.87207,-73.88459,19,36005041300,60254.0,3199,2007,28.1,0.6273835573616755,18453.1,Bedford Park Blvd,250.9,2
3d68a3fd-91da-49e8-9cd5-69b333863789,Nagle Ave & Ellwood St,40.86012,-73.928489,21,36061028300,64803.0,3239,2161,16.5,0.6671812287743131,21437.1,Dyckman St,252.5,2
1dacb0f6-29f5-4d1b-b910-92ffa5b4ca5d,Eastern Pkwy & Franklin Ave (NE Corner),40.6707767,-73.9576801,42,36047021900,122589.0,1943,1367,10.0,0.7035512094698919,13213.9,Franklin Av-Medgar Evers College,39.5,3
66dbc420-0aca-11e7-82f6-3863bb44ef7c,Clinton St & Grand St,40.71559509,-73.9870295,54,36061001401,103750.0,1799,1017,4.3,0.5653140633685381,19239.6,Delancey St-Essex St,304.4,3
1840504138040045682,Jackson Mill Rd & 93 St,40.75874,-73.87535,21,36081035300,104107.0,766,198,4.5,0.2584856396866841,4938.3,90 St-Elmhurst Av,1153.8,0
1960020234227886806,3 Ave & E 62 St,40.76313,-73.96527,51,36061011000,150164.0,3675,2983,1.6,0.8117006802721088,20819.6,Lexington Av/59 St,175.4,3
2137775326353803668,Ave C & McDonald Ave,40.6403436,-73.9791522,16,36047048600,65714.0,756,387,14.5,0.5119047619047619,4309.3,Church Av,413.5,2
66dbe571-0aca-11e7-82f6-3863bb44ef7c,W 4 St & 7 Ave S,40.73401143,-74.00293877,60,36061007300,175590.0,3552,2923,10.6,0.8229166666666666,21488.3,Christopher St-Stonewall,65.6,4
66dc7ba2-0aca-11e7-82f6-3863bb44ef7c,E 14 St & Ave B,40.72938685,-73.97772429,43,36061004400,153280.0,8189,6086,9.4,0.743192086945903,19972.6,1 Av,372.2,1
66de5005-0aca-11e7-82f6-3863bb44ef7c,7 St & 5 Ave,40.6704922,-73.98541675,27,36047013700,170600.0,1498,1004,5.0,0.6702269692923899,9826.0,4 Av-9 St,246.5,2
66dc10d1-0aca-11e7-82f6-3863bb44ef7c,E 7 St & Ave A,40.72621788,-73.98379855,45,36061003200,101294.0,4746,3687,14.4,0.7768647281921618,21802.4,1 Av,557.4,0
2546c9b9-5b1a-4e9f-a9cc-f8b986b79748,Broadway & W 192 St,40.857994,-73.932173,23,36061027900,68596.0,4302,3052,10.8,0.7094374709437471,23898.3,190 St,203.9,2
2171903608969565866,Jerome Ave & E Mosholu Pkwy N,40.88031,-73.88426,20,36005042100,52824.0,2290,1677,30.5,0.7323144104803494,9302.1,Mosholu Pkwy,70.6,1
2124381939991318658,73 St & Ridge Blvd,40.63349,-74.02976,16,36047006600,98158.0,1714,945,17.4,0.5513418903150525,11148.7,77 St,549.8,0
66dd4ccc-0aca-11e7-82f6-3863bb44ef7c,Central Park W & W 72 St,40.77579376683666,-73.9762057363987,51,36061014300,,0,0,,,0.0,72 St,28.1,1
0b613329-b8c8-4b8c-ad40-79952aa41157,1 Ave & E 110 St,40.7923272,-73.9383,25,36061018000,50560.0,2966,2475,33.8,0.8344571813890762,13956.2,110 St,583.6,0
0f45bcf6-7028-4584-a51e-4129847dbebc,4 Ave & E 12 St,40.732647,-73.99011,39,36061006100,179167.0,2214,1408,6.9,0.6359530261969286,15572.0,14 St-Union Sq,225.7,6
912813fc-fde4-4430-8443-a4fa21477e7f,Broadway & W 165 St,40.839137,-73.941409,24,36061024500,51403.0,5442,4922,31.5,0.904446894524072,25661.3,168 St-Washington Hts,190.8,3
96e72113-3681-4d19-88bb-032e76720093,W 35 St & 8 Ave,40.752762088742045,-73.99280458705107,45,36061010900,163542.0,113,107,28.4,0.9469026548672568,643.0,34 St-Penn Station,72.3,2
1822663031356509142,Matthews Ct & Coney Island Ave,40.64235,-73.96951,21,36047152200,215602.0,1417,348,3.7,0.2455892731122089,3634.6,Beverley Rd,462.8,2
e35c42c6-8b73-4528-b08d-c94b75624b40,Bushwick Ave & Stagg St,40.709897,-73.94008,21,36047048500,130278.0,1046,645,25.2,0.6166347992351816,1798.7,Grand St,231.0,2
69f84045-48f9-4c6c-90d3-0503e5ed39e9,Prospect Pl & Underhill Ave,40.6769694,-73.96579,23,36047020500,164926.0,1586,791,3.4,0.4987389659520807,9930.4,Grand Army Plaza,483.4,1
66db6f2e-0aca-11e7-82f6-3863bb44ef7c,Canal St & Rutgers St,40.71427487,-73.98990025,45,36061000600,36893.0,5393,4405,34.7,0.8167995549786761,22432.9,East Broadway,66.4,2
90b141b9-c39f-4a26-a32d-08c7d1474d52,Lafayette Ave & Hunts Point Ave,40.816567,-73.888161,22,36005009301,50962.0,1912,1309,26.0,0.6846234309623431,3349.9,Hunts Point Av,527.0,0
66db447a-0aca-11e7-82f6-3863bb44ef7c,Broad St & Bridge St,40.70365182,-74.01167797,49,36061000900,250001.0,893,703,6.6,0.7872340425531915,2987.8,Whitehall St-South Ferry,127.5,8
66dc3ab9-0aca-11e7-82f6-3863bb44ef7c,Rivington St & Chrystie St,40.72110063,-73.9919254,64,36061001800,76726.0,3170,2888,20.8,0.9110410094637224,14217.5,Bowery,190.9,6
75352ab4-8a31-4926-8b59-048a9e506452,Central Ave & Melrose St,40.70112,-73.93039,17,36047042500,86316.0,1148,831,14.5,0.7238675958188153,6839.6,Central Av,441.9,1
1f8f6714-42a7-45d5-86cd-a093c940b2c9,Grand Concourse & E 161 St,40.82713380423556,-73.9227358996868,27,36005019500,45661.0,2703,2245,39.7,0.8305586385497595,12295.1,161 St-Yankee Stadium,259.8,2
d89dc10f-9be3-45a5-9c3c-06c04c963436,Flushing Ave & Woodward Ave,40.71246,-73.91873,21,36081053901,91027.0,1625,778,11.9,0.4787692307692308,3701.5,Jefferson St,740.2,0
4d24ab76-2f4a-4004-9fc5-09c00c1d9aa4,5 Ave & 37 St,40.652657,-74.002356,30,36047008800,95707.0,1193,894,16.2,0.7493713327745181,6299.9,36 St,294.3,1
c2d549f8-f54c-4a0d-9ecd-6e6f79118279,Cooper Ave & 65 Pl,40.69953,-73.88873,23,36081062900,101097.0,1226,392,10.0,0.3197389885807504,6680.1,Fresh Pond Rd,954.3,0
19d17911-1e4a-41fa-b62b-719aa0a6182e,6 Ave & Walker St,40.7197920901383,-74.0052238852195,39,36061003300,250001.0,2660,1592,3.5,0.5984962406015037,7785.1,Canal St,114.7,7
837b7db3-55c6-4595-a497-834972631752,Stanhope St & Fairview Ave,40.70998,-73.91116,17,36081053902,,8,0,0.0,0.0,48.3,Seneca Av,852.8,0
8d650b03-920d-4d44-a48f-8d9a1a0ba264,W 190 St & Broadway,40.85648733523576,-73.93296986818314,21,36061027900,68596.0,4302,3052,10.8,0.7094374709437471,23898.3,190 St,299.7,2
cbf76774-1276-4cf8-9442-f00571f1451c,Clinton St & Tillary St,40.69623297129315,-73.99142056703568,34,36047000502,168013.0,1498,964,7.5,0.6435246995994659,15475.4,Clark St,196.2,5
c4e9905f-457b-4be0-a878-2aa53fa0b09b,Hart St & Wyckoff Ave,40.704876,-73.919911,24,36047044500,86717.0,1648,1000,14.6,0.6067961165048543,9709.0,DeKalb Av,172.4,2
c7604869-5b55-40cf-812e-fc97901bdf14,Kent Ave & Division Ave,40.706563674670925,-73.9683187007904,44,36047054300,,0,0,,,0.0,Marcy Av,912.4,0
eb217a2c-1dd0-4690-a34e-ecc1a708f883,4 Ave & Shore Road Dr,40.637033,-74.022141,20,36047012600,81477.0,892,415,18.8,0.4652466367713004,3779.9,Bay Ridge Av,252.3,1
ab5c5ee6-9c4e-4aaa-a14e-d236d3e01d9a,43 Ave & 42 St,40.74534682580983,-73.9219419658184,24,36081018102,83750.0,1799,1265,5.8,0.7031684269038355,18631.9,40 St-Lowery St,246.7,2
fd0e86e3-079d-40aa-8231-ec2cbdbd9e7f,34 St & 4 Ave,40.655278,-74.003101,23,36047008400,116100.0,1064,696,11.4,0.6541353383458647,4362.3,36 St,40.6,1
2177015593774932282,W 235 St & Independence Ave,40.88641,-73.9144,0,36005030900,117333.0,1442,365,3.1,0.2531206657420249,1055.8,238 St,1153.8,0
2177016792070807878,Riverdale Ave & W 254 St,40.90207,-73.90578,0,36005033700,125273.0,1049,136,5.0,0.1296472831267874,2472.5,Van Cortlandt Park-242 St,1548.8,0
9b7e3b8b-97ef-4038-820c-7cd1c1a34fc7,E 116 St & 2 Ave,40.796879,-73.937261,31,36061018800,27237.0,2520,2250,30.5,0.8928571428571429,16966.0,116 St,415.1,1
cc7b86cf-a2fb-4738-b967-de7b197dc930,Ave A & E 14 St,40.73031071000895,-73.98047178983688,17,36061003400,121413.0,3944,3056,17.2,0.7748478701825557,24610.5,1 Av,120.8,1
2171903733697659376,Steuben Ave & E 210 St,40.87985,-73.88083,20,36005041900,57079.0,2592,1796,17.1,0.6929012345679012,7953.2,Mosholu Pkwy,321.8,1
66dc79e6-0aca-11e7-82f6-3863bb44ef7c,W 46 St & 11 Ave,40.76341379,-73.99667444,3,36061012901,110917.0,4252,3635,7.8,0.8548918156161807,19400.8,42 St-Port Authority Bus Terminal,895.9,0
7f3aa940-18ef-4900-89dc-cdb05f693f31,Halsey St & Ralph Ave,40.68494,-73.92299,20,36047037700,71786.0,1912,906,19.8,0.4738493723849372,10052.5,Gates Av,525.0,0
66dd266a-0aca-11e7-82f6-3863bb44ef7c,44 Dr & Jackson Ave,40.74718234,-73.9432635,34,36081001901,232109.0,1031,793,2.5,0.7691561590688651,4514.0,Court Sq,84.7,5
1854537815365165328,39 Ave & 99 St,40.74962,-73.86677,21,36081040902,84091.0,780,460,9.5,0.5897435897435898,9558.4,Junction Blvd,238.2,2
1848241425697670086,Queens Blvd & 56 Ave,40.73481,-73.87431,38,36081068300,85771.0,1571,965,11.6,0.614258434118396,6428.2,Grand Av-Newtown,346.9,2
1819720453019329398,Ocean Ave & Tennis Ct,40.64873,-73.96084,23,36047051002,71007.0,1679,1354,17.3,0.806432400238237,15681.8,Church Av,269.4,1
8f1fdf4b-ecca-4f03-b04c-e10fe596e2c7,St Nicholas Ave & W 150 St,40.827212,-73.942722,26,36061023100,69949.0,2724,2088,21.0,0.7665198237885462,14911.8,145 St,297.9,4
1835247469495105628,25 Ave & 96 St,40.76447,-73.87369,21,36081035700,93153.0,1209,263,18.9,0.2175351530190239,1954.6,Junction Blvd,1739.8,0
66dcf640-0aca-11e7-82f6-3863bb44ef7c,Roebling St & N 4 St,40.71469,-73.95739,25,36047051900,221375.0,3345,2435,5.3,0.7279521674140508,12166.5,Bedford Av,293.9,1
1861680889400379678,W 233 St & Albany Crescent,40.87979,-73.90164,20,36005027700,48750.0,1790,1453,30.4,0.8117318435754189,10169.4,231 St,287.9,1
d1c204d7-d575-417d-b134-6ebdf7e99f98,46 St & 30 Rd,40.76072,-73.910989,21,36081015100,68932.0,1228,687,13.6,0.5594462540716613,9202.5,46 St,528.4,0
e10a6e12-d98c-4625-940a-9f83d9b2f6c4,20 Ave & 42 St,40.775415,-73.900063,21,36081012301,106328.0,1361,473,3.8,0.3475385745775165,2300.9,Astoria-Ditmars Blvd,1008.9,0
17ba4945-b202-4667-965f-211d80622646,Dock 72 Way & Market St,40.69985,-73.97141,22,36047054300,,0,0,,,0.0,York St,1304.6,0
2126623199408050430,Colonial Rd & 83 St,40.62691,-74.03564,16,36047004600,134773.0,512,94,9.9,0.18359375,1771.1,86 St,770.8,0
4753c893-e4bd-4d6a-bc4d-42209a19ebeb,Andrews Ave S & W 179 St,40.855156,-73.91278,20,36005024502,60221.0,1256,677,24.0,0.5390127388535032,12540.7,Burnside Av,468.6,1
66dd4bf7-0aca-11e7-82f6-3863bb44ef7c,Central Park W & W 68 St,40.7734066,-73.97782542,43,36061014300,,0,0,,,0.0,72 St,270.9,2
1843486597735840252,South Railroad Ave & Broadway,40.741,-73.88027,25,36081048500,77614.0,1685,685,14.0,0.4065281899109792,5310.7,Elmhurst Av,218.6,1
1906951766876655628,Sterling Pl & Classon Ave,40.6739411,-73.96026,29,36047021700,112957.0,1937,1526,13.4,0.7878162106350026,16184.6,Park Pl,240.7,4
bb6bba3f-19a0-4ebb-a454-4ac678d9d62d,St Johns Pl & Utica Ave,40.6705,-73.9308,21,36047034901,82521.0,817,644,18.5,0.7882496940024479,11678.6,Crown Hts-Utica Av,253.8,1
5e93b806-08e1-4ef9-98ae-d3dda20e0469,Eastern Pkwy & Schenectady Ave,40.66876,-73.93376,24,36047035102,70030.0,1047,727,31.4,0.6943648519579751,11243.9,Crown Hts-Utica Av,70.7,1
1843486189591985058,79 St & Roosevelt Ave,40.74718,-73.88675,23,36081026700,58274.0,2474,1780,12.8,0.719482619240097,11792.3,82 St-Jackson Hts,262.6,3
e4980fd0-e540-40ca-acba-c2a74f3294fc,Prospect Park W & 20 St,40.656633,-73.983864,25,36047150200,132727.0,1082,285,3.9,0.2634011090573013,3388.7,15 St-Prospect Park,555.1,0
ecbfcdb7-fffc-4d45-bed2-1510fd45834d,Jerome Ave & E 164 St,40.831444,-73.926226,21,36005006302,,0,0,,,0.0,161 St-Yankee Stadium,385.1,2
66dc9068-0aca-11e7-82f6-3863bb44ef7c,Central Park S & 6 Ave,40.76590936,-73.97634151,73,36061014300,,0,0,,,0.0,57 St,234.8,3
1835249317786962140,99 St & 38 Ave,40.75055,-73.86725,30,36081040902,84091.0,780,460,9.5,0.5897435897435898,9558.4,Junction Blvd,247.4,2
5f2766b0-362e-49e5-ab09-05e2c4b6f626,E Mosholu Pkwy & E 204 St,40.8740704,-73.8833650931,19,36005041900,57079.0,2592,1796,17.1,0.6929012345679012,7953.2,Bedford Park Blvd,330.3,2
40eaa69a-d3ab-48fc-b395-b5bdc6a1aa85,5 St & 51 Ave,40.7423737,-73.9566,21,36081000701,136875.0,1690,1117,5.1,0.6609467455621302,7025.4,Vernon Blvd-Jackson Av,255.9,1
1815968422007427668,Schenectady Ave & Cortelyou Rd,40.64535,-73.93268,22,36047085200,,0,0,,,0.0,Beverly Rd,1373.7,0
1887292564377354448,E 191 St & Bathgate Ave,40.8601,-73.8866,30,36005039700,31964.0,521,461,35.8,0.8848368522072937,991.9,Fordham Rd,947.0,0
15e1568b-f502-47a2-9d3d-b5aaa1edc239,Palmetto St & Traffic Ave,40.70929,-73.89441,21,36081061301,93669.0,1810,866,11.6,0.4784530386740331,2539.6,Fresh Pond Rd,366.6,2
cd72b9da-b7c6-4785-92b5-0fb2130f0d7b,University Ave & Brandt Pl,40.848354,-73.918389,23,36005021501,37171.0,1348,924,39.7,0.685459940652819,14659.5,Mt Eden Av,535.8,0
87091002-cc25-452a-b5d9-f8d0c3fce422,Cypress Ave & Palmetto St,40.701573408737914,-73.90876293182373,25,36081054900,104821.0,1555,865,10.0,0.5562700964630225,9465.5,Seneca Av,157.8,3
5eac53d0-5510-441a-9dbb-76bd38acf4ef,Goulden Ave & W 197 St,40.87156,-73.89714,20,36005040900,67793.0,1409,604,3.9,0.4286728176011355,1706.4,Kingsbridge Rd,422.6,1
d8e02e7b-632b-4fbe-95b9-80efa47473e3,Broadway & W 185 St,40.852538,-73.93441,21,36061027100,71595.0,3179,2411,15.0,0.758414595784838,16479.3,181 St,313.7,2
9e0b3452-ef6d-4e94-8c05-7bef199cdb74,49 Ave & 21 St,40.74252,-73.948852,21,36081001901,232109.0,1031,793,2.5,0.7691561590688651,4514.0,Hunters Point Av,34.2,3
d0b87aa7-7e19-40d2-8f7d-6a622e6ac391,Adam Clayton Powell Blvd & W 141 St,40.819241,-73.941057,24,36061023000,27860.0,3909,3351,48.8,0.8572524942440521,22505.9,145 St,425.7,1
1859811213834095332,111 St & 53 Ave,40.74336,-73.85129,25,36081038302,,0,0,,,0.0,111 St,991.1,0
467e1de6-73a6-480f-9e83-fd1b03b71047,Morgan Ave & Maspeth Ave,40.716657,-73.93637,25,36047044901,78774.0,1045,780,26.3,0.7464114832535885,2707.0,Grand St,638.8,0
fe65853e-b20a-4250-9677-2aa177283b72,Lenox Ave & W 144 St,40.819783,-73.936521,22,36061021400,51068.0,2113,1706,24.5,0.807382867960246,15585.4,145 St,74.6,2
1849008925260421550,Queens Blvd & Albion Ave,40.73856,-73.88553,21,36081048500,77614.0,1685,685,14.0,0.4065281899109792,5310.7,Elmhurst Av,524.5,0
dccab832-b4a2-4105-927d-b52ec0d92c92,34 St & 5 Ave,40.654098,-74.001131,19,36047008400,116100.0,1064,696,11.4,0.6541353383458647,4362.3,36 St,234.8,1
2098359443836787630,Park Ave & E 40 St,40.75112,-73.97851,72,36061008200,162143.0,2006,1814,5.8,0.9042871385842473,11635.7,Grand Central-42 St,157.9,4
1849009244468810224,St James Ave & 51 Ave,40.73813,-73.88104,21,36081048500,77614.0,1685,685,14.0,0.4065281899109792,5310.7,Grand Av-Newtown,344.7,2
3bf69f3e-23f6-4abe-b5fe-dabe6b0ea066,Wadsworth Ave & W 175 St,40.846052,-73.937648,24,36061026300,67024.0,2804,2495,18.0,0.8898002853067047,17836.2,175 St,228.2,1
1864605659096685518,Kingsbridge Terrace & W 230 St,40.87555,-73.90212,20,36005027300,51730.0,2979,2049,26.7,0.6878147029204431,14663.2,231 St,432.7,1
66db8ca4-0aca-11e7-82f6-3863bb44ef7c,E 11 St & 1 Ave,40.72953837,-73.98426726,61,36061004001,150661.0,1866,1706,10.8,0.9142550911039656,20339.6,1 Av,272.4,2
1843486390605672640,Ithaca St & Baxter Ave,40.74638,-73.88322,25,36081026901,58163.0,1522,1101,20.9,0.7233902759526938,13326.0,82 St-Jackson Hts,147.8,2
868586b3-ddc7-4b4b-9bed-a1e487033aaa,Pacific St & Smith St,40.687880939612775,-73.98939281702042,47,36047004300,161875.0,1964,1372,9.5,0.6985743380855397,11875.5,Bergen St,229.4,3
66de3fde-0aca-11e7-82f6-3863bb44ef7c,Cathedral Pkwy & Broadway,40.804213,-73.96699104,25,36061019500,122103.0,3246,2370,16.3,0.7301293900184843,14860.2,Cathedral Pkwy (110 St),29.9,2
66db479e-0aca-11e7-82f6-3863bb44ef7c,Howard St & Lafayette St,40.71910537,-73.99973337,39,36061004500,170714.0,414,340,13.3,0.821256038647343,3944.8,Canal St,51.3,5
1828964993433043090,Lott St & Erasmus St,40.64949,-73.95408,19,36047079400,128295.0,691,439,16.6,0.6353111432706223,3110.1,Church Av,408.8,1
1814906873296976512,Albemarle Rd & E 21 St,40.64741,-73.95933,21,36047051002,71007.0,1679,1354,17.3,0.806432400238237,15681.8,Church Av,463.7,1
8a13182a-4823-4fe7-afcd-a4ef0b134ed9,Clay Ave & E 173 St,40.843264,-73.904867,19,36005016700,45363.0,1154,748,37.0,0.6481802426343154,5606.4,174-175 Sts,531.4,0
2127386600787000162,E 196 St & Valentine Ave,40.86744,-73.89198,25,36005040302,37756.0,1581,1176,44.2,0.7438330170777988,25216.9,Kingsbridge Rd,138.5,2
1834145468418707676,88 St & Astoria Blvd,40.76424,-73.8812,20,36081032900,66573.0,1174,213,14.6,0.1814310051107325,2687.0,90 St-Elmhurst Av,1802.3,0
8ef6ec7d-e898-4edc-8f3f-af888f8c5ef4,Jerome Ave & Bedford Park Blvd E,40.87307,-73.88971,25,36005040900,67793.0,1409,604,3.9,0.4286728176011355,1706.4,Bedford Park Blvd-Lehman College,48.3,2
c8060816-b4aa-4fd9-bc66-af28bf61dc87,Hamilton Pl & W 140 St,40.822756,-73.951346,21,36061022500,53424.0,3968,2923,24.8,0.7366431451612904,15118.1,137 St-City College,213.0,2
18326827-dcae-47e0-8518-c4bb9e21eef6,Keegan Rd & 2 Ave,40.64243139706092,-74.0255355834961,35,36047001804,,0,0,,,0.0,59 St,656.7,0
1814900898997467540,Clarkson Ave & E 37 St,40.65577,-73.9432,22,36047081600,92784.0,937,456,4.0,0.4866595517609391,5216.0,Winthrop St,598.6,0
66dcbf69-0aca-11e7-82f6-3863bb44ef7c,Putnam Ave & Throop Ave,40.6851532,-73.94111,21,36047027700,61042.0,1660,1195,28.8,0.7198795180722891,10240.1,Kingston-Throop Avs,582.2,0
2018303498843153278,11 St & 43 Ave,40.75177,-73.94821,28,36081001903,172986.0,1303,1122,5.0,0.8610897927858787,2799.1,Court Sq-23 St,474.4,1
14f928c6-9a51-40a2-b7e6-a74e8b351dbf,Lenox Ave & W 130 St,40.8107922,-73.9430681,25,36061020800,73197.0,2235,1659,23.5,0.7422818791946308,15043.8,125 St,394.8,2
ffaa8f6a-a4ea-4d3a-a57c-f42f77cd4581,Thomas S. Boyland St & Fulton St,40.67854,-73.91367,24,36047037100,87679.0,1728,871,19.1,0.5040509259259259,9126.1,Rockaway Av,147.1,1
1817431953833509324,Caton Ave & Bedford Ave,40.65237,-73.95623,22,36047079602,77370.0,2034,1381,15.2,0.6789577187807276,15067.1,Parkside Av,550.3,0
01b7973e-c92e-4fbe-890e-2c24de33ce0e,Macon St & Patchen Ave,40.68374,-73.9261,19,36047038300,87786.0,2158,794,21.9,0.3679332715477293,12364.0,Utica Av,623.8,0
66dc9143-0aca-11e7-82f6-3863bb44ef7c,Catherine St & Monroe St,40.71117444,-73.99682619,35,36061002500,20597.0,1786,1626,53.8,0.910414333706607,13580.0,Chambers St,600.0,0
1854255035042870020,60 St & 37 Ave,40.74952,-73.90265,19,36081025900,61289.0,1377,733,8.1,0.5323166303558461,7356.2,65 St,353.9,3
66db33fc-0aca-11e7-82f6-3863bb44ef7c,W 18 St & 6 Ave,40.73971301,-73.99456405,69,36061005400,124732.0,2747,2049,8.8,0.7459046232253367,16355.2,14 St,215.6,6
398aa734-3893-4dba-a704-57ae8632c4f9,30 Ave & 47 St,40.761294,-73.909562,21,36081015100,68932.0,1228,687,13.6,0.5594462540716613,9202.5,46 St,638.6,0
1848241963446241866,97 St & 57 Ave,40.73727,-73.86415,20,36081044302,62731.0,1473,766,22.9,0.5200271554650373,5299.1,Woodhaven Blvd,630.5,0
efa2a82f-eb4a-4b82-a602-6c42cb984101,Kingston Ave & Montgomery St,40.66481,-73.94269,19,36047033100,44347.0,1743,1025,29.7,0.5880665519219737,12234.5,Kingston Av,512.2,0
2007842506069575758,Verveelen Pl & Broadway,40.87826,-73.90508,23,36005028300,13796.0,1044,574,65.2,0.5498084291187739,4590.2,231 St,69.4,1
64de0666-b9ab-404e-a16b-03e449bb5b4d,Putnam Ave & Ralph Ave,40.68705,-73.92338,20,36047037500,91985.0,1560,1108,20.6,0.7102564102564103,9823.1,Gates Av,301.8,1
ddc8ca6c-dceb-4603-ab1e-4bd972ca2a3d,5 Ave & 67 St,40.63593237994821,-74.01975896253617,20,36047012600,81477.0,892,415,18.8,0.4652466367713004,3779.9,Bay Ridge Av,323.6,1
6a52ceae-3b97-487a-9438-de844bfbf1c2,Amsterdam Ave & W 183 St,40.84925,-73.93022,21,36061026900,52389.0,2470,1797,14.4,0.7275303643724697,14068.5,181 St,285.4,1
2868db5b-df51-4c36-8515-ef77a5b092c2,Irving Ave & Jefferson St,40.70538,-73.92535,19,36047044700,89511.0,958,731,34.5,0.7630480167014614,5884.2,Jefferson St,246.6,1
923a60f7-2a0e-4a31-8dd5-66c8518c929e,48 Ave & 41 St,40.73985995699164,-73.92400324344635,21,36081018502,112260.0,1577,1091,10.8,0.6918199112238428,16027.4,40 St-Lowery St,436.0,1
b7c6ce96-a24d-4c1e-93ee-6f49c1adf119,E 165 St & Clay Ave,40.82809,-73.91288,19,36005014300,12367.0,743,632,49.5,0.8506056527590848,5728.1,167 St,786.0,0
b9c209b2-6284-4f5a-a32a-680ef9da1c1f,Skillman Ave & 54 St,40.745502,-73.909887,19,36081025100,90996.0,2535,1429,12.2,0.5637080867850098,10320.9,52 St,270.0,1
afd76a0e-ceb8-4d18-a427-b378c4d07a75,Dock St & Front St,40.702709,-73.99253,29,36047002100,250001.0,2800,1537,9.0,0.5489285714285714,5293.5,High St,411.1,1
68827e5f-ed28-45de-99bf-66093a8c504f,Park Pl & Utica Ave,40.67242,-73.93094,21,36047034500,81850.0,1097,803,8.5,0.731996353691887,6705.7,Crown Hts-Utica Av,426.6,1
1786696564295760054,Scholes St & Lorimer St,40.708323,-73.948732,27,36047051100,88457.0,1916,1438,19.6,0.7505219206680585,12050.0,Broadway,281.4,2
54782566-697b-497e-a503-dc1f39963eb2,38 St & 30 Ave,40.764174520197685,-73.91583994030952,27,36081015500,94375.0,886,496,4.2,0.5598194130925508,6006.5,30 Av,556.2,0
66de542a-0aca-11e7-82f6-3863bb44ef7c,Bergen St & Smith St,40.6867443,-73.99063168,48,36047006901,149936.0,807,418,7.2,0.5179677819083024,10841.8,Bergen St,69.4,1
66dc8bfd-0aca-11e7-82f6-3863bb44ef7c,Lexington Ave & E 29 St,40.74311555376486,-73.98215353488922,50,36061007200,136979.0,4078,3797,6.5,0.9310936733692988,23300.9,28 St,177.9,2
c56739c2-b310-4d73-ab0e-b6036abd9561,Broadway & 49 St,40.755389,-73.911517,25,36081016300,35237.0,1720,1319,20.8,0.766860465116279,7881.2,46 St,184.2,1
66dc85bb-0aca-11e7-82f6-3863bb44ef7c,W 42 St & 8 Ave,40.7575699,-73.99098507,41,36061011500,138750.0,1840,1447,20.0,0.7864130434782609,10479.0,42 St-Port Authority Bus Terminal,109.2,5
77463580-6421-403d-b170-f2660c216175,Menahan St & Central Ave,40.69543,-73.9196,25,36047041900,73958.0,1241,843,32.5,0.6792908944399678,8110.4,Knickerbocker Av,359.7,1
9a37d8a1-990b-484c-9603-262dbd1165cc,Bleecker St & Forest Ave,40.7107,-73.90525,19,36081059300,90975.0,1646,587,20.1,0.3566221142162818,6528.0,Forest Av,721.6,0
e6f3c665-0c87-4f34-a5e8-69baeed7b7bf,Eliot Ave & 60 Ln,40.71391,-73.90299,22,36081060100,75811.0,845,263,4.7,0.3112426035502958,5471.9,Fresh Pond Rd,1047.4,0
62e2b1dd-ca52-4e1c-a112-1d8846b9d9b5,Greenwood Ave & E 4 St,40.650739,-73.977739,21,36047150200,132727.0,1082,285,3.9,0.2634011090573013,3388.7,Fort Hamilton Pkwy,165.7,1
66db9cc4-0aca-11e7-82f6-3863bb44ef7c,Madison St & Clinton St,40.71269042,-73.98776323,39,36061000600,36893.0,5393,4405,34.7,0.8167995549786761,22432.9,East Broadway,232.9,1
66dc7659-0aca-11e7-82f6-3863bb44ef7c,FDR Drive & E 35 St,40.744219,-73.97121214,123,36061008601,145054.0,1817,1525,17.2,0.8392955421023666,14496.6,Grand Central-42 St,899.2,0
66dcf023-0aca-11e7-82f6-3863bb44ef7c,S 4 St & Rodney St,40.70934,-73.95608,21,36047052700,59632.0,2492,1886,24.6,0.7568218298555377,13115.7,Marcy Av,178.5,2
66dbca0f-0aca-11e7-82f6-3863bb44ef7c,William St & Pine St,40.70717936,-74.00887308,57,36061000700,190388.0,5224,4498,3.8,0.8610260336906586,20629.5,Wall St,44.2,10
c29c9178-bcb1-4c0c-b789-f4a89512a4e4,Concourse Village West & E 156 St,40.823162,-73.923267,21,36005006100,72123.0,1875,1081,10.7,0.5765333333333333,7722.9,161 St-Yankee Stadium,564.3,0
324af152-33ea-48a7-8bb0-ad8b6f31571f,Picnic Point,40.68512559515415,-74.02535319328308,45,36061000500,,0,0,,,0.0,South Ferry,2126.1,0
a70b26b7-fbad-4787-bf15-29f7b13a19ab,21 Ave & Shore Blvd,40.783956,-73.916894,21,36081010500,65233.0,1851,723,13.4,0.3905996758508914,9347.5,Astoria-Ditmars Blvd,1073.0,0
1838071090619298218,114 St & 39 Ave,40.7532,-73.853,30,36081039902,58640.0,407,260,32.5,0.6388206388206388,6398.9,111 St,255.7,1
679dcf08-d88c-4d1b-b81d-fe9f4aabbff7,Broadway & Madison St,40.68822,-73.91966,25,36047039700,74291.0,1598,1055,21.9,0.6602002503128911,10039.4,Gates Av,270.2,2
a724eb92-55ca-4b9f-9a87-c2e87b3cbd40,W Tremont Ave & Grand Ave,40.850036,-73.912785,21,36005021700,36195.0,1939,1628,38.3,0.8396080453842186,12005.4,176 St,192.1,1
66dd18dd-0aca-11e7-82f6-3863bb44ef7c,Driggs Ave & Lorimer St,40.72179134,-73.9504154,27,36047051500,246707.0,1272,749,4.1,0.5888364779874213,6804.9,Nassau Av,324.4,1
774c5443-d463-42b3-bfc5-b0ab3c56fe35,Wadsworth Ave & W 179 St,40.848467,-73.936064,35,36061026300,67024.0,2804,2495,18.0,0.8898002853067047,17836.2,181 St,237.5,3
66dc0bbd-0aca-11e7-82f6-3863bb44ef7c,Front St & Gold St,40.70224,-73.982578,37,36047002100,250001.0,2800,1537,9.0,0.5489285714285714,5293.5,York St,364.1,1
f72a253f-3cef-4da8-9591-0cbd3a692162,W 40 St & 7 Ave,40.754818,-73.988154,45,36061011300,93750.0,49,27,54.4,0.5510204081632653,279.0,Times Sq-42 St,76.4,6
1862759079900600428,University Ave & Morton Pl,40.85118155499655,-73.91465058978447,21,36005024300,30446.0,2007,1654,28.8,0.8241155954160438,13341.6,176 St,384.7,1
8d2eff37-be09-4b46-a95d-abff89e16d56,3 Ave & 17 St,40.666168,-73.995549,21,36047001801,,0,0,,,0.0,Prospect Av,240.9,1
d9bc0b3e-1af8-4cb6-a082-8ef1245ef329,Lexington Ave & E 120 St,40.8013066,-73.9398167,29,36061019600,28069.0,1841,1450,31.7,0.7876154263986963,10390.2,116 St,334.1,2
e666a344-1afb-4512-b2e9-2fc5ed71be2b,31 St & Ditmars Blvd,40.776168,-73.910485,24,36081011300,87393.0,1977,1234,8.5,0.6241780475467881,11064.7,Astoria-Ditmars Blvd,181.3,1
2104278402820534724,Seigel St & Humboldt St,40.704613,-73.940865,42,36047048900,26070.0,1535,1209,42.4,0.7876221498371335,16761.1,Montrose Av,358.0,2
330ee4e3-29cb-48e5-845f-a8ccf1aa2ce6,Ditmars Blvd & 43 St,40.771203,-73.903865,27,36081011900,84886.0,713,323,6.9,0.453015427769986,6396.1,Astoria-Ditmars Blvd,809.2,0
f06c01c3-fd7f-443c-a0c7-fc9233d77f6a,67 St & Erik Pl,40.633385,-74.016562,25,36047012600,81477.0,892,415,18.8,0.4652466367713004,3779.9,8 Av,449.3,1
8456b63c-37c6-49a6-8c02-bb6dcfc35041,Seaman Ave & Isham St,40.869898661940454,-73.92076313495636,23,36061030300,94208.0,1629,1114,12.7,0.6838551258440762,10399.0,Inwood-207 St,215.7,2
66dc9223-0aca-11e7-82f6-3863bb44ef7c,E 27 St & 1 Ave,40.739445,-73.976806,87,36061006600,101990.0,6431,5444,16.1,0.846524646244752,36811.5,28 St,746.5,0
1885718199416500650,Crescent Ave & Belmont Ave,40.85391,-73.8866,24,36005039100,34663.0,3026,1659,33.6,0.5482485128883013,14709.1,182-183 Sts,1213.8,0
1814900752968579218,New York Ave & Lenox Rd,40.65458,-73.94716,24,36047081800,76607.0,1894,1411,32.3,0.7449841605068638,11993.4,Winthrop St,344.7,2
66dde208-0aca-11e7-82f6-3863bb44ef7c,E 89 St & 3 Ave,40.7806284,-73.9521667,39,36061015401,122860.0,3290,2802,3.4,0.8516717325227964,46360.9,86 St,306.1,2
66dbebad-0aca-11e7-82f6-3863bb44ef7c,Jay St & Tech Pl,40.695065,-73.987167,52,36047001300,139866.0,1395,918,10.5,0.6580645161290323,4758.4,Jay St-MetroTech,303.6,5
f54ad1f8-fe58-49ac-82ae-b742aec66829,Lafayette St & Grand St,40.72028,-73.99879,78,36061004500,170714.0,414,340,13.3,0.821256038647343,3944.8,Canal St,202.4,8
1786699974232881542,Greenpoint Ave & Monitor St,40.73224,-73.94383,20,36047058901,114659.0,919,459,11.6,0.499455930359086,4557.9,Greenpoint Av,900.2,0
a958a8af-a0cc-4bca-9114-93c74ce3c693,Frost St & Debevoise Ave,40.71882,-73.93948,22,36047044901,78774.0,1045,780,26.3,0.7464114832535885,2707.0,Graham Av,610.2,0
9d23b0e9-a478-407c-a0e0-0aff1b0398fc,Forest Ave & Summerfield St,40.69922,-73.89795,23,36081055700,101636.0,1355,751,9.5,0.5542435424354244,5675.3,Halsey St,655.2,0
380394f7-64fa-4a65-a4d1-7bcaddd41fab,57 St & 4 Ave,40.642622,-74.016866,22,36047007400,73454.0,1568,1062,20.7,0.6772959183673469,11098.0,59 St,164.2,2
1815967674683118258,E 49 St & Church Ave,40.65182,-73.93135,25,36047086800,45764.0,1299,912,23.0,0.7020785219399538,7440.7,Church Av,1541.3,0
